menu,price,genre,name,adress,tel,lat,lng,url
(アイルランド) ギネス,1050,イタリアン・フレンチ,IL GHIOTTONE di piu(イルギオットーネ ディピュー),大阪府大阪市北区大深町３番１号グランフロント大阪　北館１階,06-6317-9669,34.7053446,135.4945926,https://www.hotpepper.jp/strJ001042764/
(ベルギー) ヒューガルデンホワイト,1050,イタリアン・フレンチ,IL GHIOTTONE di piu(イルギオットーネ ディピュー),大阪府大阪市北区大深町３番１号グランフロント大阪　北館１階,06-6317-9669,34.7053446,135.4945926,https://www.hotpepper.jp/strJ001042764/
(日本) サントリー プレミアムモルツ,840,イタリアン・フレンチ,IL GHIOTTONE di piu(イルギオットーネ ディピュー),大阪府大阪市北区大深町３番１号グランフロント大阪　北館１階,06-6317-9669,34.7053446,135.4945926,https://www.hotpepper.jp/strJ001042764/
<グラス>アサヒ スーパードライ,528,韓国料理,焼肉・韓国料理 KollaBo（コラボ）梅田店,大阪府大阪市北区小松原町2-4 大阪富国生命ビルB2F,050-5852-1596,34.70217,135.5000915,https://www.hotpepper.jp/strJ001294686/
<グラス>キリン一番搾り,528,韓国料理,焼肉・韓国料理 KollaBo（コラボ）梅田店,大阪府大阪市北区小松原町2-4 大阪富国生命ビルB2F,050-5852-1596,34.70217,135.5000915,https://www.hotpepper.jp/strJ001294686/
<ドイツビール>ホフブロイ・ミュンヘン ラガーStyle ALC 5.5%,950,居酒屋,串焼き&ワイン　ウナチッタ,大阪府大阪市北区曽根崎２－１０－１９ 河合ビルB１,050-5834-2677,34.7007326,135.5009073,https://www.hotpepper.jp/strJ000973087/
<中>アサヒ スーパードライ,638,韓国料理,焼肉・韓国料理 KollaBo（コラボ）梅田店,大阪府大阪市北区小松原町2-4 大阪富国生命ビルB2F,050-5852-1596,34.70217,135.5000915,https://www.hotpepper.jp/strJ001294686/
<中>キリン一番搾り,638,韓国料理,焼肉・韓国料理 KollaBo（コラボ）梅田店,大阪府大阪市北区小松原町2-4 大阪富国生命ビルB2F,050-5852-1596,34.70217,135.5000915,https://www.hotpepper.jp/strJ001294686/
<中瓶>アサヒスーパードライ,750,創作料理,産地直送海鮮　和食　恒雅（つねまさ）　北新地,大阪府大阪市北区曽根崎新地１-5-32 ボネールビル2F,06-6341-7770,34.6990236,135.5081067,https://www.hotpepper.jp/strJ001029415/
<小瓶>アサヒスーパードライ ブラック,550,創作料理,産地直送海鮮　和食　恒雅（つねまさ）　北新地,大阪府大阪市北区曽根崎新地１-5-32 ボネールビル2F,06-6341-7770,34.6990236,135.5081067,https://www.hotpepper.jp/strJ001029415/
<瓶ビール> アサヒ スーパードライ 小瓶334ml/<瓶ビール> キリン 一番搾り 小瓶334ml 各種,594,居酒屋,全席個室 湊一や 梅田店,大阪府大阪市北区小松原町1-10　梅田パルビル8F,050-5831-1099,34.7021853,135.5007048,https://www.hotpepper.jp/strJ000973186/
<瓶ビール> サッポロ ヱビス 小瓶334ml,616,居酒屋,全席個室 湊一や 梅田店,大阪府大阪市北区小松原町1-10　梅田パルビル8F,050-5831-1099,34.7021853,135.5007048,https://www.hotpepper.jp/strJ000973186/
<生>サントリープレミアムモルツ,600,創作料理,産地直送海鮮　和食　恒雅（つねまさ）　北新地,大阪府大阪市北区曽根崎新地１-5-32 ボネールビル2F,06-6341-7770,34.6990236,135.5081067,https://www.hotpepper.jp/strJ001029415/
ASAHI 中瓶 スーパードライ,750,和食,北新地 十喜,大阪府大阪市北区堂島１-1-21 GOTS３号館  2階,06-4796-7701,34.6961283,135.5002997,https://www.hotpepper.jp/strJ001186739/
ASAHIスーパードライ  瓶ビール,490,アジア・エスニック料理,京都パクチーリンクス梅田店,大阪府大阪市北区大深町1-1　ヨドバシリンクス梅田B1F,06-4256-6635,34.7040943,135.496268,https://www.hotpepper.jp/strJ001259221/
ASAHIスーパードライ  生ビール,490,アジア・エスニック料理,京都パクチーリンクス梅田店,大阪府大阪市北区大深町1-1　ヨドバシリンクス梅田B1F,06-4256-6635,34.7040943,135.496268,https://www.hotpepper.jp/strJ001259221/
B.B(アサヒ・赤星サッポロ),528,居酒屋・中華,大衆食堂ぬ。,大阪府大阪市北区兎我野町11-20　新大同ビル102,050-5289-8792,34.7011441,135.503577,https://www.hotpepper.jp/strJ001192743/
Beer小瓶(アサヒスーパードライ),880,イタリアン・フレンチ,YUNiCO（ユニコ）,大阪府大阪市北区曽根崎新地１-5-17サウザンドビル4F,050-5259-3901,34.6990236,135.5081067,https://www.hotpepper.jp/strJ001248916/
Budweiser (USA) バドワイザー(アメリカ),750,ダイニングバー・バル,muse umekita winebar&grill　グランフロント大阪,大阪府大阪市北区大深町３-１ グランフロント大阪北館６F,06-6485-7175,34.7053446,135.4945926,https://www.hotpepper.jp/strJ001127713/
DRY THE COOL(アサヒ瓶),528,焼肉・ホルモン・居酒屋,和牛　焼肉　Moo(モー),大阪府大阪市北区堂山町17-23,050-5356-4454,34.7039926,135.5024631,https://www.hotpepper.jp/strJ001215990/
Guinness (Ireland) ギネス(アイルランド),750,ダイニングバー・バル,muse umekita winebar&grill　グランフロント大阪,大阪府大阪市北区大深町３-１ グランフロント大阪北館６F,06-6485-7175,34.7053446,135.4945926,https://www.hotpepper.jp/strJ001127713/
Guinness (ギネス),990,ダイニングバー・バル,ｍｉｍｉｚｕｋｕ　ｅａｓｙｂａｒ,大阪府大阪市北区曽根崎新地２-1-13 巽梅田ビル1F,050-5223-2672,34.6977315,135.4946846,https://www.hotpepper.jp/strJ000505826/
HOEGAARDEN WHITE ヒューガルデン・ホワイト Small,850,ダイニングバー・バル,DRUNK　BEARS　Nu茶屋町店,大阪府大阪市北区茶屋町10-12　NU茶屋町Ｂ1Ｆ,06-6372-7275,34.7069626,135.4990769,https://www.hotpepper.jp/strJ000063146/
Heineken Extra Cold draft ハイネケン エクストラ コールド ドラフト,600,ダイニングバー・バル,muse umekita winebar&grill　グランフロント大阪,大阪府大阪市北区大深町３-１ グランフロント大阪北館６F,06-6485-7175,34.7053446,135.4945926,https://www.hotpepper.jp/strJ001127713/
Hoegaarden (Belgium) ヒューガルデン(ベルギー),750,ダイニングバー・バル,muse umekita winebar&grill　グランフロント大阪,大阪府大阪市北区大深町３-１ グランフロント大阪北館６F,06-6485-7175,34.7053446,135.4945926,https://www.hotpepper.jp/strJ001127713/
PSB パーフェクトサントリービール,418,居酒屋・和食,肉寿司　大衆肉酒場　肉汁　梅田お初天神店,大阪府大阪市北区曽根崎２-１４-１３ 曽根崎河合ビル,050-5286-0334,34.7009106,135.500539,https://www.hotpepper.jp/strJ001168896/
SAPPORO黒ラベル 生,2860,ダイニングバー・バル,BBQ33（ビービーキューサンジュウサン）,大阪府大阪市北区大深町3-1 グランフロント大阪北館6F,050-3154-8299,34.7053446,135.4945926,https://www.hotpepper.jp/strJ001051422/
STザ・プレミアムモルツ,700,焼肉・ホルモン,お肉の駒,大阪府大阪市北区曽根崎新地１-11-4 山大ビル2F,050-5283-8313,34.6988348,135.4844905,https://www.hotpepper.jp/strJ003366400/
Suntory香るエール プレミアムモルツ,550,焼肉・ホルモン,牛肉専門　ぶんご牛肉店　梅田北新地店,大阪府大阪市北区堂島１-5-7 堂島グランドビル1F,06-6486-9091,34.6960735,135.4961021,https://www.hotpepper.jp/strJ001230981/
[大瓶]アサヒ,715,居酒屋,世界の山ちゃん 梅田東通り店,大阪府大阪市北区堂山町1-14　こだまレジャービル1F,06-6365-8878,34.7028402,135.5040926,https://www.hotpepper.jp/strJ001034341/
[樽生]サッポロ黒ラベル,720,和食,一六茶寮,大阪府大阪市北区梅田１-13-13  阪神梅田本店9Ｆ,050-5828-7630,34.7012797,135.4983196,https://www.hotpepper.jp/strJ001280249/
[樽生]サッポロ黒ラベル,500,和食,一六茶寮,大阪府大阪市北区梅田１-13-13  阪神梅田本店9Ｆ,050-5828-7630,34.7012797,135.4983196,https://www.hotpepper.jp/strJ001280249/
[樽生]サッポロ黒ラベル 中(380ml),660,和食,おぼん食堂16,大阪府大阪市北区大深町4-20 グランフロント大阪南館7階,050-5499-0968,34.7053491,135.4945979,https://www.hotpepper.jp/strJ003366505/
[樽生]サッポロ黒ラベル 小(240ml),429,和食,おぼん食堂16,大阪府大阪市北区大深町4-20 グランフロント大阪南館7階,050-5499-0968,34.7053491,135.4945979,https://www.hotpepper.jp/strJ003366505/
[瓶]アサヒ,638,居酒屋・ダイニングバー・バル,アフロスタンド,大阪府大阪市北区神山町14-3メゾン崎山1FA号室,050-5841-6333,34.7041394,135.5058602,https://www.hotpepper.jp/strJ001287293/
[瓶]赤星サッポロ,638,居酒屋・ダイニングバー・バル,アフロスタンド,大阪府大阪市北区神山町14-3メゾン崎山1FA号室,050-5841-6333,34.7041394,135.5058602,https://www.hotpepper.jp/strJ001287293/
~ザ・プレミアム・モルツ~ マスターズドリーム,748,焼肉・ホルモン・洋食,花殿 ka-den 梅田茶屋町　近江牛一頭買い牧場直送店,大阪府大阪市北区芝田１丁目7-2阪急かっぱ横丁2F,050-5350-3156,34.7071744,135.4980634,https://www.hotpepper.jp/strJ001117383/
■サントリー ザ・プレミアム・モルツ生ビール,880,イタリアン・フレンチ,スカイダイニング＆バーラウンジ トップサーティ,大阪府大阪市北区梅田1-9-20大阪マルビル30F,06-6346-0310,34.6998287,135.4970207,https://www.hotpepper.jp/strJ000030416/
◇アサヒスーパードライ,550,焼肉・ホルモン,炭火焼肉　神戸あぶり牧場　阪急東通り店　神戸牛精肉店直営,大阪府大阪市北区堂山町2-11 MKビートルビル 2階,06-6130-7611,34.7028249,135.5035494,https://www.hotpepper.jp/strJ001051430/
☆サッポロ 生,550,焼肉・ホルモン・韓国料理,和牛焼肉食べ放題ヤキニクギャング梅田店,大阪府大阪市北区曽根崎２丁目10-21第3河合ビル1Ｆ,050-5815-5549,34.7007326,135.5009073,https://www.hotpepper.jp/strJ001270245/
《WORLD BEER》ハイネケン,730,ダイニングバー・バル,HUB　梅田東通り店,大阪府大阪市北区堂山町4-12　　白馬車ビルPart１　2F,06-6130-8982,34.702542,135.5021224,https://www.hotpepper.jp/strJ001250820/
《WORLD BEER》ハイネケン,730,ダイニングバー・バル,HUB　梅田茶屋町　アプローズ店,大阪府大阪市北区茶屋町19-19　アプローズタワーB1F,06-6377-8682,34.7083901,135.4984691,https://www.hotpepper.jp/strJ001119315/
《WORLD BEER》ハイネケン,730,ダイニングバー・バル,ＨＵＢ 梅田茶屋町店,大阪府大阪市北区茶屋町3-4　チロル茶屋町ビル2F,06-6376-8682,34.7062264,135.4989557,https://www.hotpepper.jp/strJ000727051/
《WORLD BEER》ハイネケン,730,ダイニングバー・バル,HUB LINKS UMEDA店,大阪府大阪市北区大深町1-1　LINKS UMEDA　B1F,06-6485-0715,34.7046023,135.4962013,https://www.hotpepper.jp/strJ001250818/
《WORLD BEER》ハイネケン,730,ダイニングバー・バル,ＨＵＢ　東梅田店,大阪府大阪市北区小松原町1-7 ミスターりんビルB1F,06-6130-9182,34.7021835,135.500852,https://www.hotpepper.jp/strJ001178334/
《WORLD BEER》パンクIPA/コロナ,780,ダイニングバー・バル,ＨＵＢ 梅田茶屋町店,大阪府大阪市北区茶屋町3-4　チロル茶屋町ビル2F,06-6376-8682,34.7062264,135.4989557,https://www.hotpepper.jp/strJ000727051/
《WORLD BEER》パンクIPA/コロナ,780,ダイニングバー・バル,HUB LINKS UMEDA店,大阪府大阪市北区大深町1-1　LINKS UMEDA　B1F,06-6485-0715,34.7046023,135.4962013,https://www.hotpepper.jp/strJ001250818/
《WORLD BEER》パンクIPA/コロナ,780,ダイニングバー・バル,ＨＵＢ　東梅田店,大阪府大阪市北区小松原町1-7 ミスターりんビルB1F,06-6130-9182,34.7021835,135.500852,https://www.hotpepper.jp/strJ001178334/
《WORLD BEER》パンクIPA/コロナ,780,ダイニングバー・バル,HUB　梅田茶屋町　アプローズ店,大阪府大阪市北区茶屋町19-19　アプローズタワーB1F,06-6377-8682,34.7083901,135.4984691,https://www.hotpepper.jp/strJ001119315/
《WORLD BEER》パンクIPA/コロナ,780,ダイニングバー・バル,HUB　梅田東通り店,大阪府大阪市北区堂山町4-12　　白馬車ビルPart１　2F,06-6130-8982,34.702542,135.5021224,https://www.hotpepper.jp/strJ001250820/
《WORLD BEER》ヒューガルデン,700,ダイニングバー・バル,ＨＵＢ　東梅田店,大阪府大阪市北区小松原町1-7 ミスターりんビルB1F,06-6130-9182,34.7021835,135.500852,https://www.hotpepper.jp/strJ001178334/
《WORLD BEER》ヒューガルデン,700,ダイニングバー・バル,HUB　梅田東通り店,大阪府大阪市北区堂山町4-12　　白馬車ビルPart１　2F,06-6130-8982,34.702542,135.5021224,https://www.hotpepper.jp/strJ001250820/
《WORLD BEER》ヒューガルデン,700,ダイニングバー・バル,HUB　梅田茶屋町　アプローズ店,大阪府大阪市北区茶屋町19-19　アプローズタワーB1F,06-6377-8682,34.7083901,135.4984691,https://www.hotpepper.jp/strJ001119315/
《WORLD BEER》ヒューガルデン,700,ダイニングバー・バル,ＨＵＢ 梅田茶屋町店,大阪府大阪市北区茶屋町3-4　チロル茶屋町ビル2F,06-6376-8682,34.7062264,135.4989557,https://www.hotpepper.jp/strJ000727051/
《WORLD BEER》ヒューガルデン,700,ダイニングバー・バル,HUB LINKS UMEDA店,大阪府大阪市北区大深町1-1　LINKS UMEDA　B1F,06-6485-0715,34.7046023,135.4962013,https://www.hotpepper.jp/strJ001250818/
【BEER】キリン一番搾り (中),462,焼肉・ホルモン・韓国料理,国産牛焼肉食べ放題　ふうふう亭JAPAN　梅田茶屋町店,大阪府大阪市北区茶屋町３‐２　チロル茶屋町ビル８Ｆ,050-5831-2034,34.7062264,135.4989557,https://www.hotpepper.jp/strJ000017048/
【アイルランド】ドラフトギネス,780,バー・カクテル,セブンシーズ,大阪府大阪市北区角田町９‐２０　新梅田食道街内,06-6312-4594,34.7035797,135.4980814,https://www.hotpepper.jp/strJ000013614/
【アイルランド】ドラフトギネス,780,バー・カクテル,セブンシーズ,大阪府大阪市北区角田町９‐２０　新梅田食道街内,06-6312-4594,34.7035797,135.4980814,https://www.hotpepper.jp/strJ000013614/
【アメリカ】バドワイザー,700,バー・カクテル,セブンシーズ,大阪府大阪市北区角田町９‐２０　新梅田食道街内,06-6312-4594,34.7035797,135.4980814,https://www.hotpepper.jp/strJ000013614/
【アメリカ】バドワイザー,700,バー・カクテル,セブンシーズ,大阪府大阪市北区角田町９‐２０　新梅田食道街内,06-6312-4594,34.7035797,135.4980814,https://www.hotpepper.jp/strJ000013614/
【オーストラリア】カールトンクラウンラガー,820,バー・カクテル,セブンシーズ,大阪府大阪市北区角田町９‐２０　新梅田食道街内,06-6312-4594,34.7035797,135.4980814,https://www.hotpepper.jp/strJ000013614/
【オーストラリア】カールトンクラウンラガー,820,バー・カクテル,セブンシーズ,大阪府大阪市北区角田町９‐２０　新梅田食道街内,06-6312-4594,34.7035797,135.4980814,https://www.hotpepper.jp/strJ000013614/
【ザ・プレミアムモルツ 】生ビール,550,居酒屋・和食,梅田個室居酒屋　いろどり　大阪駅前店,大阪府大阪市北区梅田２-１-１８　富士ビルB1,050-5352-9240,34.6993296,135.4954026,https://www.hotpepper.jp/strJ001211098/
【ザ・プレミアムモルツ】瓶ビール(中瓶),638,居酒屋・和食,梅田個室居酒屋　いろどり　大阪駅前店,大阪府大阪市北区梅田２-１-１８　富士ビルB1,050-5352-9240,34.6993296,135.4954026,https://www.hotpepper.jp/strJ001211098/
【ベルギー】ヒューガルデンホワイト,820,バー・カクテル,セブンシーズ,大阪府大阪市北区角田町９‐２０　新梅田食道街内,06-6312-4594,34.7035797,135.4980814,https://www.hotpepper.jp/strJ000013614/
【ベルギー】ヒューガルデン・ホワイト 樽生400ml,820,バー・カクテル,セブンシーズ,大阪府大阪市北区角田町９‐２０　新梅田食道街内,06-6312-4594,34.7035797,135.4980814,https://www.hotpepper.jp/strJ000013614/
【ベルギー】ヒューガルデン・ホワイト 樽生800ml,1540,バー・カクテル,セブンシーズ,大阪府大阪市北区角田町９‐２０　新梅田食道街内,06-6312-4594,34.7035797,135.4980814,https://www.hotpepper.jp/strJ000013614/
【ボトルビール】ギネス,720,イタリアン・フレンチ・ダイニングバー・バル,ナポリの食堂　ALBERTA　ALBERTA（アルバータ　アルバータ）　大阪マルビル店,大阪府大阪市北区梅田１-9-20-B2-202　大阪マルビルB2F,050-5816-6364,34.6998287,135.4970207,https://www.hotpepper.jp/strJ000029379/
【中ジョッキ】アサヒ スーパードライ,550,焼肉・ホルモン・韓国料理,焼肉酒家　牛角　梅田阪急東通り店,大阪府大阪市北区小松原町1-16 梅田モコビル 1F,050-5841-3338,34.7025203,135.5010177,https://www.hotpepper.jp/strJ000988970/
【中ジョッキ】アサヒ スーパードライ,550,焼肉・ホルモン・韓国料理,焼肉食べ放題酒家　牛角-ハナレ-梅田阪急東通り店,大阪府大阪市北区小松原町1-26レジャービル寿楽1階・2階,050-5287-4439,34.7023328,135.5014425,https://www.hotpepper.jp/strJ001176937/
【中瓶】アサヒスーパードライ,495,居酒屋,餃子と手羽先　まじめや　大阪駅前第二ビル店,大阪府大阪市北区梅田１－２－２　大阪駅前第２ビル　B1,050-5452-6053,34.6989342,135.4979539,https://www.hotpepper.jp/strJ001258862/
【中瓶】アサヒスーパードライ,580,和食・居酒屋,炭火焼dining おかげ家 梅田店,大阪府大阪市北区鶴野町2-5,050-5572-3869,34.7069887,135.5009717,https://www.hotpepper.jp/strJ001099805/
【中瓶】キリンラガービール,715,和食,囲炉端　堂山,大阪府大阪市北区堂山町６-７　ステージゴールドビル1F,050-5258-6143,34.7028893,135.5028207,https://www.hotpepper.jp/strJ001245852/
【中瓶】ザ・プレミアムモルツ,495,居酒屋,餃子と手羽先　まじめや　大阪駅前第二ビル店,大阪府大阪市北区梅田１－２－２　大阪駅前第２ビル　B1,050-5452-6053,34.6989342,135.4979539,https://www.hotpepper.jp/strJ001258862/
【中瓶】ザ・プレミアム・モルツ,748,和食,囲炉端　堂山,大阪府大阪市北区堂山町６-７　ステージゴールドビル1F,050-5258-6143,34.7028893,135.5028207,https://www.hotpepper.jp/strJ001245852/
【中瓶】スーパードライ,693,和食,囲炉端　堂山,大阪府大阪市北区堂山町６-７　ステージゴールドビル1F,050-5258-6143,34.7028893,135.5028207,https://www.hotpepper.jp/strJ001245852/
【低糖質】PSB(パーフェクトサントリービール),495,焼肉・ホルモン,炭火焼肉×食べ放題 段サ上レバモツ喰ライ 梅田東通り店,大阪府大阪市北区小松原町4-5,050-5449-0346,34.7026707,135.5010691,https://www.hotpepper.jp/strJ001227207/
【大瓶ビール】 アサヒスーパードライ,748,居酒屋,牛刺し　牛ホルモン串　なにわ酒房　大阪梅田　茶屋町本店,大阪府大阪市北区芝田１－７－２,050-5452-1691,34.7072867,135.4979365,https://www.hotpepper.jp/strJ001250759/
【大瓶ビール】 キリンクラシックラガー,748,居酒屋,牛刺し　牛ホルモン串　なにわ酒房　大阪梅田　茶屋町本店,大阪府大阪市北区芝田１－７－２,050-5452-1691,34.7072867,135.4979365,https://www.hotpepper.jp/strJ001250759/
【大瓶ビール】 サッポロ 赤星ラガー,748,居酒屋,牛刺し　牛ホルモン串　なにわ酒房　大阪梅田　茶屋町本店,大阪府大阪市北区芝田１－７－２,050-5452-1691,34.7072867,135.4979365,https://www.hotpepper.jp/strJ001250759/
【日本】アサヒプレミアム熟撰 樽生300ml,520,バー・カクテル,セブンシーズ,大阪府大阪市北区角田町９‐２０　新梅田食道街内,06-6312-4594,34.7035797,135.4980814,https://www.hotpepper.jp/strJ000013614/
【日本】アサヒプレミアム熟撰 樽生400ml,620,バー・カクテル,セブンシーズ,大阪府大阪市北区角田町９‐２０　新梅田食道街内,06-6312-4594,34.7035797,135.4980814,https://www.hotpepper.jp/strJ000013614/
【瓶】アサヒスーパードライ,499,居酒屋,大衆すし酒場　ジャポニカセカンド　梅田東通り店,大阪府大阪市北区小松原町1-1 小松原ビル1階,050-5280-7553,34.7022238,135.5014872,https://www.hotpepper.jp/strJ001266048/
【瓶】アサヒスーパードライ/キリン一番搾り,660,焼肉・ホルモン,牛タンと和牛焼き　青葉苑　阪急うめだ本店,大阪府大阪市北区角田町8-7阪急うめだ本店12F,050-5452-6068,34.7028186,135.4985323,https://www.hotpepper.jp/strJ001258496/
【瓶】サッポロビール黒,499,居酒屋,大衆すし酒場　ジャポニカセカンド　梅田東通り店,大阪府大阪市北区小松原町1-1 小松原ビル1階,050-5280-7553,34.7022238,135.5014872,https://www.hotpepper.jp/strJ001266048/
【瓶】サントリーモルツ,499,居酒屋,大衆すし酒場　ジャポニカセカンド　梅田東通り店,大阪府大阪市北区小松原町1-1 小松原ビル1階,050-5280-7553,34.7022238,135.5014872,https://www.hotpepper.jp/strJ001266048/
【瓶ビール】 スーパードライ (中瓶),638,居酒屋・中華,肉汁餃子製作所　食べ放題　居酒屋　餃子のかっちゃん　梅田茶屋町店,大阪府大阪市北区芝田１-5-14 シマサダビル,050-5831-6885,34.7062981,135.4975835,https://www.hotpepper.jp/strJ001282711/
【瓶ビール】アサヒ or キリン,825,洋食,ニュー松坂 梅田32番街店,大阪府大阪市北区角田町8-47 阪急グランドビル31F,06-6484-9801,34.7029862,135.4990478,https://www.hotpepper.jp/strJ001178967/
【瓶ビール】アサヒスーパードライ 中瓶,638,居酒屋,新世界　串カツ　いっとく　阪急梅田堂山店,大阪府大阪市北区堂山町5-9　扇会館,06-6362-9499,34.7030114,135.5020856,https://www.hotpepper.jp/strJ001171158/
【瓶ビール】アサヒスーパードライ(中),600,居酒屋,居酒屋うろ,大阪府大阪市北区中津１-17-12  メロディーハイム中津5番館1F,050-5834-6619,34.7122316,135.4970226,https://www.hotpepper.jp/strJ000772495/
【瓶ビール】キリン一番搾り 中瓶,638,居酒屋,新世界　串カツ　いっとく　阪急梅田堂山店,大阪府大阪市北区堂山町5-9　扇会館,06-6362-9499,34.7030114,135.5020856,https://www.hotpepper.jp/strJ001171158/
【瓶ビール】サッポロ ラガービール,550,ダイニングバー・バル,ワインとオマール海老の店 UOMO（ウォモ）　大阪駅前第3ビル,大阪府大阪市北区梅田１-１-３　大阪駅前第3ビルB1　14号,050-5355-7664,34.6987788,135.499416,https://www.hotpepper.jp/strJ001217975/
【瓶ビール】ザ・モルツ,700,創作料理,割烹・ろばた　和心,大阪府大阪市北区曽根崎新地１-8-14,050-5349-7287,34.6982594,135.4988228,https://www.hotpepper.jp/strJ001128852/
【瓶ビール】ザ・モルツ 中瓶,638,居酒屋,新世界　串カツ　いっとく　阪急梅田堂山店,大阪府大阪市北区堂山町5-9　扇会館,06-6362-9499,34.7030114,135.5020856,https://www.hotpepper.jp/strJ001171158/
【瓶ビール】ヒューガルデンホワイト,880,バー・カクテル,Bar SPORTS運慶,大阪府大阪市北区曽根崎新地１-1-39延藤ビル1階,06-6344-1559,34.6967625,135.5002813,https://www.hotpepper.jp/strJ000758725/
【瓶ビール】一番搾り黒生/オリオンビール/コロナ エキストラ,770,バー・カクテル,Bar SPORTS運慶,大阪府大阪市北区曽根崎新地１-1-39延藤ビル1階,06-6344-1559,34.6967625,135.5002813,https://www.hotpepper.jp/strJ000758725/
【生ビール】 キリン一番搾り,616,居酒屋,牛刺し　牛ホルモン串　なにわ酒房　大阪梅田　茶屋町本店,大阪府大阪市北区芝田１－７－２,050-5452-1691,34.7072867,135.4979365,https://www.hotpepper.jp/strJ001250759/
【生ビール】 神泡のザ・プレミアム・モルツ,328,居酒屋・中華,肉汁餃子製作所　食べ放題　居酒屋　餃子のかっちゃん　梅田茶屋町店,大阪府大阪市北区芝田１-5-14 シマサダビル,050-5831-6885,34.7062981,135.4975835,https://www.hotpepper.jp/strJ001282711/
【生ビール】アサヒ スーパー・ドライ (中),825,洋食,ニュー松坂 梅田32番街店,大阪府大阪市北区角田町8-47 阪急グランドビル31F,06-6484-9801,34.7029862,135.4990478,https://www.hotpepper.jp/strJ001178967/
【生ビール】ザ・プレミアム・モルツ マスターズドリーム,980,創作料理,割烹・ろばた　和心,大阪府大阪市北区曽根崎新地１-8-14,050-5349-7287,34.6982594,135.4988228,https://www.hotpepper.jp/strJ001128852/
【生ビール】ザ・プレミアム・モルツ 香るエール,550,ダイニングバー・バル,ワインとオマール海老の店 UOMO（ウォモ）　大阪駅前第3ビル,大阪府大阪市北区梅田１-１-３　大阪駅前第3ビルB1　14号,050-5355-7664,34.6987788,135.499416,https://www.hotpepper.jp/strJ001217975/
【生ビール】ザ・プレミアム・モルツ<香る>エール,439,居酒屋,新世界　串カツ　いっとく　阪急梅田堂山店,大阪府大阪市北区堂山町5-9　扇会館,06-6362-9499,34.7030114,135.5020856,https://www.hotpepper.jp/strJ001171158/
【赤】メッツァコロナ アンテッラ ピノ・ノワール,3179,ダイニングバー・バル,Ｇｕｍｂｏ＆ＯｙｓｔｅｒＢａｒ（ガンボ＆オイスターバー）　ＮＵ茶屋町店,大阪府大阪市北区茶屋町１０－１２　NU茶屋町８F,050-5265-6862,34.7069626,135.4990769,https://www.hotpepper.jp/strJ000041371/
【赤】メッツァコロナ アンテッラ ピノ・ノワール,3179,イタリアン・フレンチ,Umeda Station ＯｙｓｔｅｒＢａｒ　阪急グランドビル,大阪府大阪市北区角田町8-47　阪急グランドビル32番街31F,050-5265-6859,34.7029862,135.4990478,https://www.hotpepper.jp/strJ001001399/
お得ジョッキ生(アサヒスーパードライ),528,焼肉・ホルモン,炭火焼肉×食べ放題 段サ上レバモツ喰ライ 梅田東通り店,大阪府大阪市北区小松原町4-5,050-5449-0346,34.7026707,135.5010691,https://www.hotpepper.jp/strJ001227207/
きりんクラシックラガー大瓶,650,居酒屋・創作料理,大衆食堂きりんホール,大阪府大阪市北区堂山町2-14ケイワイ堂山ビル102号,050-5280-9919,34.7029,135.5038402,https://www.hotpepper.jp/strJ001267399/
びんビール(アサヒスーパードライ),600,和食,わっぜ,大阪府大阪市北区曽根崎新地１-11-4 一らくビル1F,06-6225-7114,34.7661566,135.4604355,https://www.hotpepper.jp/strJ001217609/
アサヒ,500,カフェ・スイーツ,whitebird  coffee  stand,大阪府大阪市北区曽根崎２-1-12　国道ビル　1F,06-6809-3769,34.6984571,135.5016622,https://www.hotpepper.jp/strJ001142803/
アサヒ,770,和食,割烹 ふじ久,大阪府大阪市北区曽根崎新地１‐２‐１３,050-5265-9201,34.7011661,135.5002261,https://www.hotpepper.jp/strJ000448570/
アサヒ,500,中華,焼賣太樓 桜橋店,大阪府大阪市北区梅田２-1-16,06-6341-7061,34.6994133,135.4953013,https://www.hotpepper.jp/strJ001119557/
アサヒ エクストラコールド,710,ダイニングバー・バル,阪急うめだ本店　美味旬菜,大阪府大阪市北区角田町8-7　阪急うめだ本店12F,050-5877-1665,34.7028186,135.4985323,https://www.hotpepper.jp/strJ001041245/
アサヒ スーパドライ (中瓶),600,和食,雲仙　北新地本店,大阪府大阪市北区曽根崎新地１-9-15 雲仙ビル1～3F,06-6345-0902,34.6982594,135.4988228,https://www.hotpepper.jp/strJ000448663/
アサヒ スーパー ドライ Regular,500,ダイニングバー・バル,DRUNK　BEARS　Nu茶屋町店,大阪府大阪市北区茶屋町10-12　NU茶屋町Ｂ1Ｆ,06-6372-7275,34.7069626,135.4990769,https://www.hotpepper.jp/strJ000063146/
アサヒ スーパードライ,825,中華,海皇(はいふぁん) 堂島店,大阪府大阪市北区堂島１-4-2  ビールディング北新地3F,050-5287-1755,34.696101,135.4982009,https://www.hotpepper.jp/strJ001176657/
アサヒ スーパードライ,570,カラオケ・パーティ,カラオケ　ビッグエコー　梅田茶屋町本店,大阪府大阪市北区茶屋町2-16 イースクエア茶屋町2F,06-6292-8575,34.7058328,135.499195,https://www.hotpepper.jp/strJ001195932/
アサヒ スーパードライ,730,和食,epais　北新地店,大阪府大阪市北区曽根崎新地１-9-3ニュー華ビル3Ｆ,06-6347-6599,34.6982594,135.4988228,https://www.hotpepper.jp/strJ001125145/
アサヒ スーパードライ,570,カラオケ・パーティ,カラオケ　ビッグエコー　茶屋町店,大阪府大阪市北区茶屋町1-5 茶屋町茶ビン堂ビル,06-6359-5553,34.7052348,135.5005759,https://www.hotpepper.jp/strJ000017091/
アサヒ スーパードライ,570,カラオケ・パーティ,カラオケ　ビッグエコー　お初天神店,大阪府大阪市北区曽根崎２-8-15,06-6360-7776,34.7000017,135.5008199,https://www.hotpepper.jp/strJ001193929/
アサヒ スーパードライ,880,ダイニングバー・バル,堂島ゴルフクラブ Restraurant Bar St.,大阪府大阪市北区堂島１-2-2 日昭ビル　Ｂ１,06-6345-1366,34.6961192,135.4996001,https://www.hotpepper.jp/strJ001176481/
アサヒ スーパードライ,570,カラオケ・パーティ,カラオケ　ビッグエコー　曽根崎お初天神通り店,大阪府大阪市北区曽根崎２-13-17 曽根崎渡辺ビル2F,06-6312-3451,34.7012873,135.5002629,https://www.hotpepper.jp/strJ000016962/
アサヒ スーパードライ,650,創作料理,北新地　うえはら,大阪府大阪市北区堂島１-3-20　天風ビル1F,050-5280-7917,34.6969782,135.4972803,https://www.hotpepper.jp/strJ000659627/
アサヒ スーパードライ,750,居酒屋・和食,炭と地酒とたしなみワイン　Ｋａｉ本店　醸す,大阪府大阪市北区堂島浜１‐１‐１５ 堂浜第２ビルＢ１,050-5258-5769,34.6957247,135.4999131,https://www.hotpepper.jp/strJ000012789/
アサヒ スーパードライ,550,中華・居酒屋,浪花ひとくち餃子 チャオチャオ 大阪駅前第3ビル店,大阪府大阪市北区梅田１-1-3 大阪駅前第3ビル B2F,050-5499-3347,34.6988257,135.4992804,https://www.hotpepper.jp/strJ003388273/
アサヒ スーパードライ,570,カラオケ・パーティ,カラオケ　ビッグエコー　梅田東通り店,大阪府大阪市北区小松原町4-5　純情モンテカルロビル,06-6131-3811,34.7031442,135.5012911,https://www.hotpepper.jp/strJ001109253/
アサヒ スーパードライ,570,カラオケ・パーティ,カラオケ　ビッグエコー　阪急東通り店,大阪府大阪市北区堂山町5-6 起世ビル,06-6366-8848,34.7028248,135.5020764,https://www.hotpepper.jp/strJ000016951/
アサヒ スーパードライ,570,カラオケ・パーティ,カラオケ　ビッグエコー　梅田中央店,大阪府大阪市北区小松原町１－１０,06-6313-1050,34.7021853,135.5007048,https://www.hotpepper.jp/strJ000016968/
アサヒ スーパードライ,638,イタリアン・フレンチ・カフェ・スイーツ,Lipari Osaka （リパリオーサカ）,大阪府大阪市北区堂山町7-22 ステージ中通りビル5階,050-5861-7357,34.7035252,135.5024523,https://www.hotpepper.jp/strJ003298107/
アサヒ スーパードライ,490,焼肉・ホルモン,阿蘇熔岩石焼　といとい　穴座,大阪府大阪市北区曽根崎１-7-10,050-5861-6764,34.6994254,135.5025557,https://www.hotpepper.jp/strJ001028487/
アサヒ スーパードライ,638,イタリアン・フレンチ・カフェ・スイーツ,TOLAH UMEDA(トーラ),大阪府大阪市北区堂山町-7-22ステージ中通りビル4階,050-5816-7531,34.7035252,135.5024523,https://www.hotpepper.jp/strJ001278062/
アサヒ スーパードライ,880,洋食,ステーキハウス　デボン,大阪府大阪市北区曽根崎新地１-5-10 北新地地田ビル5F,050-5265-9120,34.6978962,135.4969306,https://www.hotpepper.jp/strJ000448632/
アサヒ スーパードライ (中グラス),528,洋食,包みハンバーグ　SEN　HEPナビオ,大阪府大阪市北区角田町7-10　HEPナビオ7F　ナビオダイニング,050-5347-1565,34.7032182,135.5000051,https://www.hotpepper.jp/strJ000706528/
アサヒ スーパードライ (中瓶),700,韓国料理,焼肉　韓流食彩　瑞英　北新地店,大阪府大阪市北区堂島浜１丁目３－２２　堂島タウンビル１Ｆ,050-5366-2810,34.6957355,135.4975197,https://www.hotpepper.jp/strJ001222932/
アサヒ スーパードライ (中瓶),605,居酒屋・和食,牛肉寿司 海鮮 串天ぷら酒場 レレレ 梅田店,大阪府大阪市北区曽根崎２-10-15曽根崎センタービル2F,050-5259-8923,34.7007263,135.5007048,https://www.hotpepper.jp/strJ001249151/
アサヒ スーパードライ Regular,500,ダイニングバー・バル,DRUNK　BEARS　Nu茶屋町店,大阪府大阪市北区茶屋町10-12　NU茶屋町Ｂ1Ｆ,06-6372-7275,34.7069626,135.4990769,https://www.hotpepper.jp/strJ000063146/
アサヒ スーパードライ エクストラコールド,900,洋食,ホテルグランヴィア大阪　スカイダイニング　アブ,大阪府大阪市北区梅田３－１－１　ホテルグランヴィア大阪19F,06-6347-1439,34.701726,135.4963754,https://www.hotpepper.jp/strJ000012969/
アサヒ スーパードライ グラス,495,和食,阪急うめだ本店　江戸前回転鮨　紀州弥一,大阪府大阪市北区角田町8-7 阪急うめだ本店12F,050-5887-3010,34.7028186,135.4985323,https://www.hotpepper.jp/strJ001050830/
アサヒ スーパードライ グラスビール,330,焼肉・ホルモン・各国料理,焼肉じゅうじゅうカルビ　東梅田店,大阪府大阪市北区堂山町1-5 三共梅田ビル2F,050-5499-0990,34.7026461,135.5043503,https://www.hotpepper.jp/strJ003366582/
アサヒ スーパードライ ジョッキ,720,イタリアン・フレンチ・ダイニングバー・バル,ダイニングカフェ＆バー　BUZZ（バズ）　梅田,大阪府大阪市北区小松原町2-4 大阪富国生命ビル　1F,050-5828-8561,34.70217,135.5000915,https://www.hotpepper.jp/strJ000961930/
アサヒ スーパードライ マグナム,1150,洋食,ホテルグランヴィア大阪　スカイダイニング　アブ,大阪府大阪市北区梅田３－１－１　ホテルグランヴィア大阪19F,06-6347-1439,34.701726,135.4963754,https://www.hotpepper.jp/strJ000012969/
アサヒ スーパードライ メガジョッキ,1265,イタリアン・フレンチ・ダイニングバー・バル,ダイニングカフェ＆バー　BUZZ（バズ）　梅田,大阪府大阪市北区小松原町2-4 大阪富国生命ビル　1F,050-5828-8561,34.70217,135.5000915,https://www.hotpepper.jp/strJ000961930/
アサヒ スーパードライ 中,548,焼肉・ホルモン,大衆焼肉　朝まで焼肉でっせ,大阪府大阪市北区堂山町５－８,050-5816-7759,34.7028858,135.502058,https://www.hotpepper.jp/strJ000662354/
アサヒ スーパードライ 中ジョッキ,715,和食,阪急うめだ本店　江戸前回転鮨　紀州弥一,大阪府大阪市北区角田町8-7 阪急うめだ本店12F,050-5887-3010,34.7028186,135.4985323,https://www.hotpepper.jp/strJ001050830/
アサヒ スーパードライ 中瓶,600,和食,魚彩山昧 いっつ亭,大阪府大阪市北区西天満２-3-2,06-6363-2299,34.695804,135.5031259,https://www.hotpepper.jp/strJ000507719/
アサヒ スーパードライ 中瓶,700,焼肉・ホルモン,個室・焼肉懐石　北新地 すがはら,大阪府大阪市北区堂島１‐４‐２　ビールディング北新地２Ｆ,06-6341-2915,34.696101,135.4982009,https://www.hotpepper.jp/strJ000109854/
アサヒ スーパードライ 大瓶,990,居酒屋・和食,炭と地酒とたしなみワイン　Ｋａｉ本店　醸す,大阪府大阪市北区堂島浜１‐１‐１５ 堂浜第２ビルＢ１,050-5258-5769,34.6957247,135.4999131,https://www.hotpepper.jp/strJ000012789/
アサヒ スーパードライ 小瓶,700,ダイニングバー・バル,madam GORILLA,大阪府大阪市北区曽根崎新地１丁目10-16 永楽ビル9F,06-6341-3355,34.69764,135.4958679,https://www.hotpepper.jp/strJ001193449/
アサヒ スーパードライ 瓶ビール 中,500,和食,味楽,大阪府大阪市北区角田町９‐２５　新梅田食道街内,06-6313-4461,34.7035797,135.4980814,https://www.hotpepper.jp/strJ000661084/
アサヒ スーパードライ 生ビール 中,500,和食,味楽,大阪府大阪市北区角田町９‐２５　新梅田食道街内,06-6313-4461,34.7035797,135.4980814,https://www.hotpepper.jp/strJ000661084/
アサヒ スーパードライ 生ビール 小,380,和食,味楽,大阪府大阪市北区角田町９‐２５　新梅田食道街内,06-6313-4461,34.7035797,135.4980814,https://www.hotpepper.jp/strJ000661084/
アサヒ スーパードライ 生ビール(中),550,焼肉・ホルモン・各国料理,焼肉じゅうじゅうカルビ　東梅田店,大阪府大阪市北区堂山町1-5 三共梅田ビル2F,050-5499-0990,34.7026461,135.5043503,https://www.hotpepper.jp/strJ003366582/
アサヒ スーパードライ(中),665,和食,共友丸　北新地店,大阪府大阪市北区曽根崎新地１-3-19 北新地ビルディング1階,050-5841-4170,34.6977533,135.4957892,https://www.hotpepper.jp/strJ001292268/
アサヒ スーパードライ(中),550,和食・居酒屋,しゃぶしゃぶ温野菜　梅田ＨＥＰ通り店,大阪府大阪市北区角田町6-3　北大阪振興角田町ビル2F,050-5827-7855,34.703605,135.5006895,https://www.hotpepper.jp/strJ001161669/
アサヒ スーパードライ(中瓶),528,居酒屋・和食,寿司×海鮮×天ぷら×食べ放題　のぶちゃん　梅田東通り店,大阪府大阪市北区堂山町７-２４,050-5834-0398,34.7032841,135.5025345,https://www.hotpepper.jp/strJ000789037/
アサヒ スーパードライ(中瓶),605,居酒屋,《個室》小皿料理と日本酒　大衆酒場　ニュー曙　梅田東通り店,大阪府大阪市北区堂山町6-2,050-5845-7158,34.7029798,135.5033008,https://www.hotpepper.jp/strJ001294844/
アサヒ スーパードライ(大瓶),583,居酒屋,立呑み 丘（ひるず）,大阪府大阪市北区曽根崎新地２－４－２０,06-7177-1625,34.6976953,135.4944361,https://www.hotpepper.jp/strJ001222881/
アサヒ スーパードライ(小),700,イタリアン・フレンチ,人家　（じんや）,大阪府大阪市北区曽根崎新地１‐３‐３　好陽ビルＢ１Ｆ,050-5831-1981,34.6973226,135.4969674,https://www.hotpepper.jp/strJ000017160/
アサヒ スーパードライ(小),418,和食,共友丸　北新地店,大阪府大阪市北区曽根崎新地１-3-19 北新地ビルディング1階,050-5841-4170,34.6977533,135.4957892,https://www.hotpepper.jp/strJ001292268/
アサヒ スーパードライ(小瓶),480,中華,中國菜　心香,大阪府大阪市北区西天満５-6-26,06-6232-8118,34.6989007,135.5082172,https://www.hotpepper.jp/strJ001143636/
アサヒ スーパードライ(瓶),943,和食,共友丸　北新地店,大阪府大阪市北区曽根崎新地１-3-19 北新地ビルディング1階,050-5841-4170,34.6977533,135.4957892,https://www.hotpepper.jp/strJ001292268/
アサヒ スーパードライ/シャンディガフ/フルーツビア3種,770,ダイニングバー・バル・和食,日本料理＆SKY BAR　ちょうつがひ,大阪府大阪市北区角田町8-47 阪急グランドビル32番街28F,06-6131-2242,34.7029862,135.4990478,https://www.hotpepper.jp/strJ001000918/
アサヒ スーパードライ<中瓶>,550,居酒屋,肉汁　堂山店,大阪府大阪市北区小松原町５－１４　小松原ビル1F,050-5220-0717,34.7035818,135.5014172,https://www.hotpepper.jp/strJ000012942/
アサヒ ドライプレミアム,880,洋食,ステーキハウス　デボン,大阪府大阪市北区曽根崎新地１-5-10 北新地地田ビル5F,050-5265-9120,34.6978962,135.4969306,https://www.hotpepper.jp/strJ000448632/
アサヒ ドライプレミアム[中ジョッキ],594,ダイニングバー・バル,トリベーネ　梅田店,大阪府大阪市北区芝田１-12-7 1F,06-6374-1133,34.7077244,135.4970779,https://www.hotpepper.jp/strJ003340112/
アサヒ ドライ生,605,焼肉・ホルモン,肉家　串八　梅田店,大阪府大阪市北区曽根崎２丁目13-5,06-6366-0029,34.7009711,135.5001984,https://www.hotpepper.jp/strJ001216063/
アサヒ プレミアム熟撰生ビール,600,和食,魚彩山昧 いっつ亭,大阪府大阪市北区西天満２-3-2,06-6363-2299,34.695804,135.5031259,https://www.hotpepper.jp/strJ000507719/
アサヒ マルエフ樽生 レギュラー,690,居酒屋,ドルフィンズ　梅田店,大阪府大阪市北区芝田１-5-2　大和ビル1F,06-6373-9041,34.7062444,135.4974092,https://www.hotpepper.jp/strJ000661021/
アサヒ マルエフ生/黒生,462,居酒屋,《個室》小皿料理と日本酒　大衆酒場　ニュー曙　梅田東通り店,大阪府大阪市北区堂山町6-2,050-5845-7158,34.7029798,135.5033008,https://www.hotpepper.jp/strJ001294844/
アサヒ マルエフ生ハーフ&ハーフ,480,ダイニングバー・バル・創作料理,大衆酒場　スタンド　ぱと　梅田店,大阪府大阪市北区兎我野町11-10 スイスビル１Ｆ,050-5852-3451,34.7012633,135.5030431,https://www.hotpepper.jp/strJ001018865/
アサヒ マルエフ生ビール,450,ダイニングバー・バル・創作料理,大衆酒場　スタンド　ぱと　梅田店,大阪府大阪市北区兎我野町11-10 スイスビル１Ｆ,050-5852-3451,34.7012633,135.5030431,https://www.hotpepper.jp/strJ001018865/
アサヒ マルエフ黒生ビール,480,ダイニングバー・バル・創作料理,大衆酒場　スタンド　ぱと　梅田店,大阪府大阪市北区兎我野町11-10 スイスビル１Ｆ,050-5852-3451,34.7012633,135.5030431,https://www.hotpepper.jp/strJ001018865/
アサヒ 中生ビール,418,居酒屋,立呑み 丘（ひるず）,大阪府大阪市北区曽根崎新地２－４－２０,06-7177-1625,34.6976953,135.4944361,https://www.hotpepper.jp/strJ001222881/
アサヒ 小生ビール,308,居酒屋,立呑み 丘（ひるず）,大阪府大阪市北区曽根崎新地２－４－２０,06-7177-1625,34.6976953,135.4944361,https://www.hotpepper.jp/strJ001222881/
アサヒ 熟撰 305ml瓶,990,居酒屋・和食,炭と地酒とたしなみワイン　Ｋａｉ本店　醸す,大阪府大阪市北区堂島浜１‐１‐１５ 堂浜第２ビルＢ１,050-5258-5769,34.6957247,135.4999131,https://www.hotpepper.jp/strJ000012789/
アサヒ 熟撰 中瓶,900,ダイニングバー・バル,美食米門 梅田,大阪府大阪市北区梅田２-2-22 ハービスPLAZAENT5F,050-5816-5955,34.6997829,135.4945698,https://www.hotpepper.jp/strJ000014602/
アサヒ 生ビール「スーパードライ」,880,洋食,ステーキハウス　デボン,大阪府大阪市北区曽根崎新地１-5-10 北新地地田ビル5F,050-5265-9120,34.6978962,135.4969306,https://www.hotpepper.jp/strJ000448632/
アサヒ 生ビール中,400,バー・カクテル,北京,大阪府大阪市北区角田町９－２５　新梅田食道街内,06-6311-2369,34.7035797,135.4980814,https://www.hotpepper.jp/strJ000866812/
アサヒ 黒ビン生ビール,400,バー・カクテル,北京,大阪府大阪市北区角田町９－２５　新梅田食道街内,06-6311-2369,34.7035797,135.4980814,https://www.hotpepper.jp/strJ000866812/
アサヒ(中瓶),605,居酒屋,《24時間営業》大衆居酒屋　酒ト肴さしすせそ　梅田東通り店,大阪府大阪市北区堂山町5-4,050-5815-5303,34.702836,135.5022329,https://www.hotpepper.jp/strJ001270281/
アサヒすうぱぁどぉらぉい,638,居酒屋・ダイニングバー・バル,海鮮×牛肉寿司×食べ放題 okiumiya 梅田店,大阪府大阪市北区兎我野町13-2 平田第一レジャービル,050-5449-0355,34.700214,135.5029142,https://www.hotpepper.jp/strJ001227006/
アサヒスーパドライ (熟撰),600,イタリアン・フレンチ,サラマンジェ　角屋,大阪府大阪市北区曽根崎新地１‐５‐２　大川ビル本館Ｂ１Ｆ,050-5281-0457,34.6985641,135.5087696,https://www.hotpepper.jp/strJ000659654/
アサヒスーパードライ,600,和食,たかまる、,大阪府大阪市北区中崎１-1-22 グレース中崎1F,06-6363-4080,34.7060163,135.5065047,https://www.hotpepper.jp/strJ001135013/
アサヒスーパードライ,700,焼肉・ホルモン,黒毛和牛焼肉　きっしゃん　永楽町　松,大阪府大阪市北区曽根崎新地１丁目７－１９　えすぱす北新地21　1階,050-5452-6661,34.6973227,135.4999131,https://www.hotpepper.jp/strJ001259672/
アサヒスーパードライ,638,居酒屋・ダイニングバー・バル,沖縄居酒屋　轟屋　ゴウヤ 大阪梅田店,大阪府大阪市北区堂山町１－２１,050-5816-6882,34.7029027,135.5045807,https://www.hotpepper.jp/strJ000019139/
アサヒスーパードライ,759,居酒屋・ダイニングバー・バル,【全席個室】時間無制限 食べ飲み放題 全120種 砦 とりで 梅田店,大阪府大阪市北区梅田２－4－43　浪漫倶楽部３Ｆ,050-5265-7883,34.6989553,135.4947399,https://www.hotpepper.jp/strJ001265450/
アサヒスーパードライ,500,カフェ・スイーツ,ボードゲームカフェ　プラス,大阪府大阪市北区曽根崎１-7-2 曽根崎FUKUE BLDG　2F,050-5449-7022,34.6992774,135.5033398,https://www.hotpepper.jp/strJ001231689/
アサヒスーパードライ,660,居酒屋・和食,うにくと肉寿司 全席個室居酒屋　そざい庵～SOZAIAN～梅田駅店,大阪府大阪市北区小松原町1-10 9階,050-5816-0643,34.7021853,135.5007048,https://www.hotpepper.jp/strJ001168766/
アサヒスーパードライ,800,焼肉・ホルモン,お肉の駒,大阪府大阪市北区曽根崎新地１-11-4 山大ビル2F,050-5283-8313,34.6988348,135.4844905,https://www.hotpepper.jp/strJ003366400/
アサヒスーパードライ,580,居酒屋・和食,個室海鮮居酒屋　石狩漁場　梅田HEPナビオ店,大阪府大阪市北区角田町7-10　 HEPナビオ6F　ナビオダイニング阪急ナビオメンズ館6F　※ナビオダイニング内,050-5257-3420,34.7032457,135.5003083,https://www.hotpepper.jp/strJ001109231/
アサヒスーパードライ,630,和食,和食　個室　北新地　暁（あかつき）,大阪府大阪市北区曽根崎新地１-3-9　GOTS北新地1号館2F,050-5265-6399,34.697513,135.4962862,https://www.hotpepper.jp/strJ001100613/
アサヒスーパードライ,550,ダイニングバー・バル,Dining Bar CAMP,大阪府大阪市北区堂山町16-19イワタ会館3F,06-6809-4882,34.7042337,135.5030062,https://www.hotpepper.jp/strJ001125167/
アサヒスーパードライ,600,バー・カクテル,shot BAR commons(ショットバーコモンズ),大阪府大阪市北区曽根崎２‐8‐12,050-5347-1910,34.6996762,135.5006495,https://www.hotpepper.jp/strJ000920462/
アサヒスーパードライ,660,焼肉・ホルモン,牛タンと和牛焼き　青葉苑　阪急うめだ本店,大阪府大阪市北区角田町8-7阪急うめだ本店12F,050-5452-6068,34.7028186,135.4985323,https://www.hotpepper.jp/strJ001258496/
アサヒスーパードライ,590,居酒屋・ダイニングバー・バル,名古屋コーチンと個室居酒屋 天錦 梅田本店,大阪府大阪市北区堂山町4-17 固城ビル 2F,050-5285-4067,34.7026918,135.5026748,https://www.hotpepper.jp/strJ001162244/
アサヒスーパードライ,649,居酒屋,チーズタッカルビ 個室 SENBA 梅田東通り店,大阪府大阪市北区堂山町4-17 固城ビル3F-B,06-6948-8651,34.7026918,135.5026748,https://www.hotpepper.jp/strJ001098882/
アサヒスーパードライ,638,中華,旨味　研究所128,大阪府大阪市北区堂島１-3-33新地萬年ビル3階,050-5346-2805,34.6967601,135.4982745,https://www.hotpepper.jp/strJ001193247/
アサヒスーパードライ,630,ダイニングバー・バル,ジャマイカンBBQ＆シーフード　Ragga×Ragga(ラガラガ)　北新地,大阪府大阪市北区曽根崎新地１-1-40 ジロービル3Ｆ,050-5816-6766,34.6967269,135.5003549,https://www.hotpepper.jp/strJ000677616/
アサヒスーパードライ,660,居酒屋・洋食,チーズとお肉×夜景個室ダイニング 空Garden 梅田駅店,大阪府大阪市北区小松原町1-10 9階,050-5816-0639,34.7021853,135.5007048,https://www.hotpepper.jp/strJ001168767/
アサヒスーパードライ,770,ダイニングバー・バル・イタリアン・フレンチ,BeeRUSH 梅田店,大阪府大阪市北区小松原町4-32　北大阪東通りビル2F,050-5834-9913,34.7028375,135.5013676,https://www.hotpepper.jp/strJ000636772/
アサヒスーパードライ,730,イタリアン・フレンチ・ダイニングバー・バル,CAFE＆DINNING IGNITE(イグナイト) 大阪梅田店,大阪府大阪市北区梅田３丁目1番1号　グランヴィア大阪1F,050-5258-0708,34.701726,135.4963754,https://www.hotpepper.jp/strJ001239081/
アサヒスーパードライ,660,和食,博多鶏ソバ　華味鳥　阪急うめだ本店,大阪府大阪市北区角田町8-7　阪急うめだ本店12F,050-5346-8998,34.7028186,135.4985323,https://www.hotpepper.jp/strJ001195123/
アサヒスーパードライ,580,居酒屋,隠れ家個室 肉バル GLAM(グラム)梅田店,大阪府大阪市北区小松原町1-10　梅田パルビル7Ｆ,050-5350-5185,34.7021853,135.5007048,https://www.hotpepper.jp/strJ001208390/
アサヒスーパードライ,500,居酒屋,伊江人酒場,大阪府大阪市北区堂山町8-16 C棟,050-5827-3270,34.703661,135.5029694,https://www.hotpepper.jp/strJ001153766/
アサヒスーパードライ,500,和食,北新地　鶏屋　さん羽,大阪府大阪市北区曽根崎新地１－７－２５　セレーネ北新地ビル２Ｆ,06-6147-8138,34.6970044,135.4989189,https://www.hotpepper.jp/strJ001127725/
アサヒスーパードライ,220,ダイニングバー・バル,200円Bar moonwalkお初天神店,大阪府大阪市北区曽根崎２-11-19サンプラザ曽根崎 ビル２F,06-6940-0038,34.7007516,135.500401,https://www.hotpepper.jp/strJ001251656/
アサヒスーパードライ,800,バー・カクテル,北新地マジックステージ 106　ワンオーシックス,大阪府大阪市北区曽根崎新地１‐１０‐１６永楽ビルＢ１,06-6341-7106,34.6980434,135.4977038,https://www.hotpepper.jp/strJ000760114/
アサヒスーパードライ,580,居酒屋・洋食,最大140品食べ飲み放題 全席個室居酒屋 ひなた 梅田店,大阪府大阪市北区小松原町1-10梅田パルビル7F,050-5845-6763,34.7021853,135.5007048,https://www.hotpepper.jp/strJ001018197/
アサヒスーパードライ,580,居酒屋・和食,個室海鮮居酒屋　石狩漁場　梅田お初天神店,大阪府大阪市北区曽根崎２－１５－２０　SWINGうめだ６階,050-5828-9372,34.7017667,135.500852,https://www.hotpepper.jp/strJ001001571/
アサヒスーパードライ,580,居酒屋,全席個室 ぶっかけ海鮮居酒屋 きたいち酒場 梅田店,大阪府大阪市北区曽根崎新地１-5-18　零北新地6F,06-6136-7560,34.6979906,135.4970226,https://www.hotpepper.jp/strJ001050827/
アサヒスーパードライ,715,焼肉・ホルモン,北新地てっぺん,大阪府大阪市北区曽根崎新地１-6-1 ENISHI北新地ビル4F,06-6344-2985,34.6982594,135.4988228,https://www.hotpepper.jp/strJ001187092/
アサヒスーパードライ,430,焼肉・ホルモン,ニッカツ ホルモン,大阪府大阪市北区堂山町１０－２　１階　阪急東通り商店街東詰め,050-5816-7757,34.7031416,135.5044841,https://www.hotpepper.jp/strJ000012987/
アサヒスーパードライ,500,イタリアン・フレンチ・洋食,MEAT LAB.8129,大阪府大阪市北区大深町３－１グランフロント大阪北館６階,050-5831-2690,34.7053446,135.4945926,https://www.hotpepper.jp/strJ001282806/
アサヒスーパードライ,500,居酒屋,酒場のものも,大阪府大阪市北区堂島２-1-36クニタビル1F,06-6348-8834,34.6964527,135.4952461,https://www.hotpepper.jp/strJ001284713/
アサヒスーパードライ,495,和食,炭焼きBAR 心 ～COCORO～ 梅田本店,大阪府大阪市北区堂山町８－１６,050-5265-9559,34.7035407,135.5028589,https://www.hotpepper.jp/strJ001124898/
アサヒスーパードライ,440,イタリアン・フレンチ,la sow,大阪府大阪市北区梅田１丁目３-１大阪駅前第一ビルB2F,050-5452-5758,34.6988863,135.4964525,https://www.hotpepper.jp/strJ001258606/
アサヒスーパードライ,429,居酒屋,鶏家　六角鶏　梅田店,大阪府大阪市北区堂山町１８－１,050-5841-6073,34.7047882,135.5024106,https://www.hotpepper.jp/strJ001001620/
アサヒスーパードライ,638,居酒屋・ダイニングバー・バル,Private個室 & 肉寿司 創作チーズ料理 食べ飲み放題　 ビストロ　ウメダ　梅田本店,大阪府大阪市北区曽根崎２-8-7 コーストスタジョーネ4F,050-5499-7153,34.6997226,135.5011282,https://www.hotpepper.jp/strJ003411690/
アサヒスーパードライ,710,ダイニングバー・バル・バー・カクテル,ダイニングダーツバー Bee 梅田店,大阪府大阪市北区堂山町4-12白馬車ビル8階・9階,050-5861-6414,34.702542,135.5021224,https://www.hotpepper.jp/strJ000013441/
アサヒスーパードライ,638,居酒屋・和食,寿司・肉寿司・焼鳥食べ飲み放題　完全個室　和食処　梅かぐら　梅田本店,大阪府大阪市北区曽根崎２-8-7 コーストスタジョーネ4F,050-5499-7155,34.6997226,135.5011282,https://www.hotpepper.jp/strJ003411689/
アサヒスーパードライ,880,イタリアン・フレンチ,Cendre French Restaurant,大阪府大阪市北区堂山町8-16,06-4397-3755,34.7035407,135.5028589,https://www.hotpepper.jp/strJ001109312/
アサヒスーパードライ,759,居酒屋,食べ飲み放題　個室肉バル　クラフトマルシェ梅田店,大阪府大阪市北区梅田２-4-43 浪漫倶楽部3F,050-5368-0299,34.6989553,135.4947399,https://www.hotpepper.jp/strJ001224947/
アサヒスーパードライ,528,焼肉・ホルモン・居酒屋,和牛　焼肉　Moo(モー),大阪府大阪市北区堂山町17-23,050-5356-4454,34.7039926,135.5024631,https://www.hotpepper.jp/strJ001215990/
アサヒスーパードライ,550,焼肉・ホルモン,焼肉 梅田明月館 堂山店,大阪府大阪市北区堂山町５-１７,050-5572-1181,34.7030621,135.5025607,https://www.hotpepper.jp/strJ001262436/
アサヒスーパードライ,660,居酒屋・ダイニングバー・バル,炭火バル　あじと,大阪府大阪市北区堂山町9-28スプラウトビル1F,050-5499-4796,34.7031198,135.5039453,https://www.hotpepper.jp/strJ001160905/
アサヒスーパードライ,528,居酒屋・和食,炭焼きBAR 心 ～COCORO～ 梅田東通り店,大阪府大阪市北区堂山町3-12 ステージスカラブビル2F,050-5841-3481,34.7027071,135.5028589,https://www.hotpepper.jp/strJ001027703/
アサヒスーパードライ,605,居酒屋・和食,曲ル角ニハ泡喰ライ,大阪府大阪市北区堂山町16-14,050-5831-0745,34.7042808,135.5026932,https://www.hotpepper.jp/strJ001281855/
アサヒスーパードライ,715,イタリアン・フレンチ・洋食,PIZZA SALVATORE CUOMO 梅田／TheBAR,大阪府大阪市北区曽根崎２－３－５ 梅新第一生命ビル1・2F,050-5816-7876,34.698519,135.50108,https://www.hotpepper.jp/strJ000724766/
アサヒスーパードライ,500,居酒屋・和食,ウシとお寿司とろくでなし 梅田店,大阪府大阪市北区堂山町8－18松本レジャービル１F110号,050-5499-6064,34.703547,135.5030615,https://www.hotpepper.jp/strJ003411527/
アサヒスーパードライ,600,中華,Chinese Dining Hu-Long,大阪府大阪市北区曽根崎新地１-2-4　谷安セストビル2Ｆ,050-5280-0492,34.6970035,135.4983297,https://www.hotpepper.jp/strJ000747076/
アサヒスーパードライ,495,居酒屋・ダイニングバー・バル,野菜巻き串　くわ焼き　宮崎和牛　串イッカ 東梅田店,大阪府大阪市北区堂山町10-4 忠兵衛ビル1F,050-5356-4643,34.7030896,135.5042951,https://www.hotpepper.jp/strJ001215827/
アサヒスーパードライ,620,居酒屋・ダイニングバー・バル,大衆酒場　むに,大阪府大阪市北区堂山町16-12,050-5449-0361,34.7041067,135.5026629,https://www.hotpepper.jp/strJ001227198/
アサヒスーパードライ,495,イタリアン・フレンチ・洋食,PIZZA SALVATORE CUOMO 梅田／TheBAR,大阪府大阪市北区曽根崎２－３－５ 梅新第一生命ビル1・2F,050-5816-7876,34.698519,135.50108,https://www.hotpepper.jp/strJ000724766/
アサヒスーパードライ  中瓶,704,焼肉・ホルモン,Barbeque & Wine Diｎning 黒毛和牛焼肉きっしゃん 北新地店,大阪府大阪市北区曽根崎新地１-3-23　北新地FOODEARビル2F,050-5284-7287,34.6977162,135.4961491,https://www.hotpepper.jp/strJ001160049/
アサヒスーパードライ (中ジョッキ),550,創作料理,翠酔,大阪府大阪市北区堂山町7-18　第一名門ビル2F,050-5499-4721,34.7036634,135.5023904,https://www.hotpepper.jp/strJ003411279/
アサヒスーパードライ (中瓶),800,焼肉・ホルモン・韓国料理,焼肉　蔵人,大阪府大阪市北区堂島１-4-23　北新地吉本ビル6Ｆ,050-5257-7864,34.6961845,135.4977406,https://www.hotpepper.jp/strJ000954859/
アサヒスーパードライ (中瓶),530,焼肉・ホルモン・韓国料理,大衆焼肉　瓜一　中崎町店,大阪府大阪市北区中崎西４-1-26  2階,06-6485-5333,34.7087127,135.5035494,https://www.hotpepper.jp/strJ001267985/
アサヒスーパードライ (中瓶),748,和食・居酒屋,鮨割烹 のの 梅田お初天神店,大阪府大阪市北区曽根崎２－１１－２３,050-5852-0216,34.7004738,135.5003839,https://www.hotpepper.jp/strJ001294866/
アサヒスーパードライ (大瓶),550,居酒屋,鉄板焼き　とん　大阪駅前第三ビル店,大阪府大阪市北区梅田１丁目１－３　大阪駅前第三ビルB2F,050-5452-4544,34.6988257,135.4992804,https://www.hotpepper.jp/strJ001205940/
アサヒスーパードライ (大瓶),550,中華・居酒屋,大衆食堂うめだホール,大阪府大阪市北区梅田１丁目1-3 B1-25,050-5815-5546,34.6987788,135.499416,https://www.hotpepper.jp/strJ001269975/
アサヒスーパードライ (生ビール),528,イタリアン・フレンチ・洋食,串とピッツァ　ミアスタンド　梅田店,大阪府大阪市北区堂山町梅田地下街3－4,050-5453-2550,34.6893023,135.4796573,https://www.hotpepper.jp/strJ001260746/
アサヒスーパードライ (生中),770,焼肉・ホルモン,黒毛和牛焼肉　きっしゃん　永楽町　松,大阪府大阪市北区曽根崎新地１丁目７－１９　えすぱす北新地21　1階,050-5452-6661,34.6973227,135.4999131,https://www.hotpepper.jp/strJ001259672/
アサヒスーパードライ (生中),605,和食・居酒屋,鮨割烹 のの 梅田お初天神店,大阪府大阪市北区曽根崎２－１１－２３,050-5852-0216,34.7004738,135.5003839,https://www.hotpepper.jp/strJ001294866/
アサヒスーパードライ 10杯(10コイン),3850,居酒屋,食べ飲み放題の店 生醤油うどんとお酒 醤屋万吉 ハービスプラザ店,大阪府大阪市北区梅田２-5-25　ハービスプラザ B2F,050-5499-6562,34.6984253,135.4926758,https://www.hotpepper.jp/strJ003410996/
アサヒスーパードライ 1杯(1コイン),438,居酒屋,食べ飲み放題の店 生醤油うどんとお酒 醤屋万吉 ハービスプラザ店,大阪府大阪市北区梅田２-5-25　ハービスプラザ B2F,050-5499-6562,34.6984253,135.4926758,https://www.hotpepper.jp/strJ003410996/
アサヒスーパードライ <中瓶>,605,居酒屋・焼肉・ホルモン,炉端とホルモンと串焼きとおでん とっとっと　梅田お初天神店,大阪府大阪市北区曽根崎２-１３-１７,050-5499-0865,34.7012873,135.5002629,https://www.hotpepper.jp/strJ003365791/
アサヒスーパードライ 〈瓶ビール〉,528,居酒屋,九州居酒屋よっとこ,大阪府大阪市北区梅田１-2-2 地下2階49号　大阪駅前第二ビル,050-5854-9312,34.6989342,135.4979539,https://www.hotpepper.jp/strJ002647361/
アサヒスーパードライ エクストラコールド,660,ダイニングバー・バル,ジャマイカンBBQ＆シーフード　Ragga×Ragga(ラガラガ)　北新地,大阪府大阪市北区曽根崎新地１-1-40 ジロービル3Ｆ,050-5816-6766,34.6967269,135.5003549,https://www.hotpepper.jp/strJ000677616/
アサヒスーパードライ エクストラコールド,560,ダイニングバー・バル,シンガポールシーフード・リパブリック　大丸梅田,大阪府大阪市北区梅田３-1-1 大丸梅田店　14Ｆ,06-6347-1160,34.701789,135.4965763,https://www.hotpepper.jp/strJ000963872/
アサヒスーパードライ エクストラコールド,650,ダイニングバー・バル,アサヒスーパードライ 梅田店,大阪府大阪市北区西天満４丁目15‐10あいおいニッセイ同和損保フェニックスタワーB1F,050-5258-1151,34.6978834,135.5010999,https://www.hotpepper.jp/strJ001238958/
アサヒスーパードライ エクストラコールド,760,カラオケ・パーティ,コートダジュール 泉の広場店  (旧：カラオケ804泉の広場店),大阪府大阪市北区太融寺町5-8ダイヤモンドレジャービル4～5F,050-5831-6661,34.7020114,135.5029326,https://www.hotpepper.jp/strJ000013553/
アサヒスーパードライ エクストラコールド(生),429,焼肉・ホルモン,焼肉・ホルモン　曽根崎酒場　情熱ホルモン,大阪府大阪市北区曽根崎２－１４－７　グランデ曽根崎１F,050-5878-8870,34.7009651,135.501073,https://www.hotpepper.jp/strJ000054557/
アサヒスーパードライ エクストラゴールド,606,和食,銀座ハゲ天　大阪ステーションシティ店,大阪府大阪市北区梅田３-1-1　サウスゲートビル16Ｆ,06-6345-1006,34.7018732,135.4965663,https://www.hotpepper.jp/strJ000448667/
アサヒスーパードライ エクストラゴールド,417,和食,銀座ハゲ天　大阪ステーションシティ店,大阪府大阪市北区梅田３-1-1　サウスゲートビル16Ｆ,06-6345-1006,34.7018732,135.4965663,https://www.hotpepper.jp/strJ000448667/
アサヒスーパードライ グラス,418,居酒屋・和食,炭火バル　らいず　梅田　お初天神店,大阪府大阪市北区曽根崎２－10－19　河合ビル１階,050-5280-6895,34.7007326,135.5009073,https://www.hotpepper.jp/strJ001127677/
アサヒスーパードライ グラスビール,360,創作料理,串かつ料理　活　阪急三番街店,大阪府大阪市北区芝田１-1-3 阪急三番街南館B2F,06-6372-8714,34.7042385,135.4984654,https://www.hotpepper.jp/strJ000014516/
アサヒスーパードライ ザ・クール,850,ダイニングバー・バル・イタリアン・フレンチ,BeeRUSH 梅田店,大阪府大阪市北区小松原町4-32　北大阪東通りビル2F,050-5834-9913,34.7028375,135.5013676,https://www.hotpepper.jp/strJ000636772/
アサヒスーパードライ ピルスナーグラス各,490,ダイニングバー・バル,アサヒスーパードライ 梅田店,大阪府大阪市北区西天満４丁目15‐10あいおいニッセイ同和損保フェニックスタワーB1F,050-5258-1151,34.6978834,135.5010999,https://www.hotpepper.jp/strJ001238958/
アサヒスーパードライ プレミアム 生ビール(中),858,和食,串揚げ　和や,大阪府大阪市北区曽根崎新地１－３－２９　リップルMAXビル１階,06-6348-1138,34.6976031,135.4967465,https://www.hotpepper.jp/strJ001222905/
アサヒスーパードライ プレミアム 生ビール(小),638,和食,串揚げ　和や,大阪府大阪市北区曽根崎新地１－３－２９　リップルMAXビル１階,06-6348-1138,34.6976031,135.4967465,https://www.hotpepper.jp/strJ001222905/
アサヒスーパードライ プレミアム(生),450,和食,讃岐うどん今雪,大阪府大阪市北区神山町3‐10　清覚ビル1Ｆ,06-6316-0826,34.7031433,135.5059893,https://www.hotpepper.jp/strJ001034265/
アサヒスーパードライ メガジョッキ各,1500,ダイニングバー・バル,アサヒスーパードライ 梅田店,大阪府大阪市北区西天満４丁目15‐10あいおいニッセイ同和損保フェニックスタワーB1F,050-5258-1151,34.6978834,135.5010999,https://www.hotpepper.jp/strJ001238958/
アサヒスーパードライ 中,550,和食,鮨革命　本店　梅田大阪駅前,大阪府大阪市北区芝田２-2-8　幸福ビル1階,050-5816-3195,34.7054449,135.4959733,https://www.hotpepper.jp/strJ001277032/
アサヒスーパードライ 中びん,550,中華,華神,大阪府大阪市北区梅田１-3-1 大阪駅前第一ビル 地下2階33-5,050-5816-2709,34.6988134,135.4964973,https://www.hotpepper.jp/strJ001276655/
アサヒスーパードライ 中ジョッキ,484,居酒屋・和食,炭火バル　らいず　梅田　お初天神店,大阪府大阪市北区曽根崎２－10－19　河合ビル１階,050-5280-6895,34.7007326,135.5009073,https://www.hotpepper.jp/strJ001127677/
アサヒスーパードライ 中ジョッキ,693,居酒屋・和食,完全個室完備 四季彩 －SHIKISAI－ 梅田店,大阪府大阪市北区芝田２-3-9 EXCEL UMEDA 3F,050-5831-6850,34.7054067,135.4953251,https://www.hotpepper.jp/strJ001283853/
アサヒスーパードライ 中ジョッキ,693,居酒屋・焼肉・ホルモン,【完全個室完備】極上肉と旨い海鮮 はなれ -HANARE- 梅田店,大阪府大阪市北区芝田２-3-9 EXCEL UMEDA 3F,050-5831-6904,34.7054067,135.4953251,https://www.hotpepper.jp/strJ001283854/
アサヒスーパードライ 中ジョッキ/瓶,480,居酒屋・アジア・エスニック料理,インディアンタンドリー BINDU グランフロント大阪店,大阪府大阪市北区大深町4-20 グランフロント大阪 7F,050-5861-1911,34.7053491,135.4945979,https://www.hotpepper.jp/strJ002648344/
アサヒスーパードライ 中ジョッキ各,830,ダイニングバー・バル,アサヒスーパードライ 梅田店,大阪府大阪市北区西天満４丁目15‐10あいおいニッセイ同和損保フェニックスタワーB1F,050-5258-1151,34.6978834,135.5010999,https://www.hotpepper.jp/strJ001238958/
アサヒスーパードライ 中瓶,638,居酒屋,元祖串しゃぶ専門店　まつたけ　堂山店,大阪府大阪市北区堂山町17-3　イーグルビル１F,050-5258-4746,34.7038714,135.5022314,https://www.hotpepper.jp/strJ001245331/
アサヒスーパードライ 中瓶,528,和食,和膳和酒　油屋,大阪府大阪市北区中津３－５－５,06-6371-2123,34.7103547,135.4937926,https://www.hotpepper.jp/strJ001131542/
アサヒスーパードライ 中瓶,680,中華,中華バイキング　遥華　北新地店,大阪府大阪市北区堂島浜１-3-22堂島タウンビル3Ｆ,050-5816-6805,34.6957355,135.4975197,https://www.hotpepper.jp/strJ000712179/
アサヒスーパードライ 中瓶,450,焼肉・ホルモン,ホルモン焼おかだ,大阪府大阪市北区梅田１-2-2号　大坂駅前第2ビルB2F,06-6454-1118,34.6989342,135.4979539,https://www.hotpepper.jp/strJ001146814/
アサヒスーパードライ 中瓶,638,居酒屋・ダイニングバー・バル,食べ放題×飲み放題　喰人（EAT-MAN） 梅田東通り店,大阪府大阪市北区小松原町1-19,050-5828-8728,34.7025317,135.5011616,https://www.hotpepper.jp/strJ000635806/
アサヒスーパードライ 中瓶,605,居酒屋・イタリアン・フレンチ,酒場リベリー　episode2,大阪府大阪市北区堂山町16-4 パールレジャービル107,050-5259-9293,34.7039639,135.5030615,https://www.hotpepper.jp/strJ001249205/
アサヒスーパードライ 中瓶,580,居酒屋,居酒屋　創菜酒房　おん　梅田店,大阪府大阪市北区堂山町15-17　梅田ACT３　1F,050-5887-7143,34.7046853,135.5030062,https://www.hotpepper.jp/strJ001054111/
アサヒスーパードライ 中瓶,660,居酒屋,元祖串しゃぶ専門店　まつたけ　北新地本店,大阪府大阪市北区曽根崎新地１-9-8,06-6345-8884,34.6982594,135.4988228,https://www.hotpepper.jp/strJ001245605/
アサヒスーパードライ 中瓶,980,洋食,ホテルグランヴィア大阪　スカイダイニング　アブ,大阪府大阪市北区梅田３－１－１　ホテルグランヴィア大阪19F,06-6347-1439,34.701726,135.4963754,https://www.hotpepper.jp/strJ000012969/
アサヒスーパードライ 中瓶,682,居酒屋・和食,炭火バル　らいず　梅田　お初天神店,大阪府大阪市北区曽根崎２－10－19　河合ビル１階,050-5280-6895,34.7007326,135.5009073,https://www.hotpepper.jp/strJ001127677/
アサヒスーパードライ 中瓶,530,創作料理,串かつ料理　活　阪急三番街店,大阪府大阪市北区芝田１-1-3 阪急三番街南館B2F,06-6372-8714,34.7042385,135.4984654,https://www.hotpepper.jp/strJ000014516/
アサヒスーパードライ 中生,290,焼肉・ホルモン・居酒屋,七輪焼肉　安安　梅田東通り店,大阪府大阪市北区堂山町１０－３　東通り商店街ビル１F,050-5257-2884,34.7031146,135.5043872,https://www.hotpepper.jp/strJ001109186/
アサヒスーパードライ 大ジョッキ各,1000,ダイニングバー・バル,アサヒスーパードライ 梅田店,大阪府大阪市北区西天満４丁目15‐10あいおいニッセイ同和損保フェニックスタワーB1F,050-5258-1151,34.6978834,135.5010999,https://www.hotpepper.jp/strJ001238958/
アサヒスーパードライ 大瓶 (1本),550,居酒屋・創作料理,串カツ 天満 七福神 大阪駅前第3ビル店,大阪府大阪市北区梅田１-1-3 大阪駅前第3ビル B2F,050-5499-3345,34.6988257,135.4992804,https://www.hotpepper.jp/strJ003388350/
アサヒスーパードライ 小ジョッキ各,690,ダイニングバー・バル,アサヒスーパードライ 梅田店,大阪府大阪市北区西天満４丁目15‐10あいおいニッセイ同和損保フェニックスタワーB1F,050-5258-1151,34.6978834,135.5010999,https://www.hotpepper.jp/strJ001238958/
アサヒスーパードライ 小瓶,660,バー・カクテル,放課後駄菓子バー　A－55 大阪梅田店,大阪府大阪市北区太融寺町7-11 フジノビル4F,06-6948-5831,34.7014921,135.5027853,https://www.hotpepper.jp/strJ001000006/
アサヒスーパードライ 小瓶,520,居酒屋・和食,ウシとお寿司とろくでなし 梅田店,大阪府大阪市北区堂山町8－18松本レジャービル１F110号,050-5499-6064,34.703547,135.5030615,https://www.hotpepper.jp/strJ003411527/
アサヒスーパードライ 樽生,850,ダイニングバー・バル,美食米門 梅田,大阪府大阪市北区梅田２-2-22 ハービスPLAZAENT5F,050-5816-5955,34.6997829,135.4945698,https://www.hotpepper.jp/strJ000014602/
アサヒスーパードライ 樽生,440,中華,華神,大阪府大阪市北区梅田１-3-1 大阪駅前第一ビル 地下2階33-5,050-5816-2709,34.6988134,135.4964973,https://www.hotpepper.jp/strJ001276655/
アサヒスーパードライ 樽生,556,和食,銀座ハゲ天　大阪ステーションシティ店,大阪府大阪市北区梅田３-1-1　サウスゲートビル16Ｆ,06-6345-1006,34.7018732,135.4965663,https://www.hotpepper.jp/strJ000448667/
アサヒスーパードライ 樽生,334,和食,銀座ハゲ天　大阪ステーションシティ店,大阪府大阪市北区梅田３-1-1　サウスゲートビル16Ｆ,06-6345-1006,34.7018732,135.4965663,https://www.hotpepper.jp/strJ000448667/
アサヒスーパードライ 瓶,550,お好み焼き・もんじゃ,お好み・鉄板　がるぼ,大阪府大阪市北区堂島１－４－２６　玉家ビル１F　１０１,06-6343-1155,34.6961633,135.498072,https://www.hotpepper.jp/strJ000448469/
アサヒスーパードライ 瓶,680,居酒屋,酒菜料理　愛志蔵 （アジクラ）,大阪府大阪市北区堂島１-1-20,06-6343-1047,34.6963741,135.5000788,https://www.hotpepper.jp/strJ000448465/
アサヒスーパードライ 瓶,500,居酒屋,食堂酒場ラ クレール,大阪府大阪市北区堂島２-1-24堂島アーバンライフB1,06-6348-1245,34.6961477,135.4942244,https://www.hotpepper.jp/strJ000448952/
アサヒスーパードライ 瓶ビール(中),638,居酒屋,新世界串カツ　いっとく　大阪駅前第４ビル店,大阪府大阪市北区梅田１－１１－４　大阪駅前第4ビル　地下2階,06-6348-9499,34.6998973,135.4988268,https://www.hotpepper.jp/strJ001153979/
アサヒスーパードライ 生,350,焼肉・ホルモン,ホルモン焼おかだ,大阪府大阪市北区梅田１-2-2号　大坂駅前第2ビルB2F,06-6454-1118,34.6989342,135.4979539,https://www.hotpepper.jp/strJ001146814/
アサヒスーパードライ 生,580,中華,中華バイキング　遥華　北新地店,大阪府大阪市北区堂島浜１-3-22堂島タウンビル3Ｆ,050-5816-6805,34.6957355,135.4975197,https://www.hotpepper.jp/strJ000712179/
アサヒスーパードライ 生,450,居酒屋,食堂酒場ラ クレール,大阪府大阪市北区堂島２-1-24堂島アーバンライフB1,06-6348-1245,34.6961477,135.4942244,https://www.hotpepper.jp/strJ000448952/
アサヒスーパードライ 生グラス,400,居酒屋,わらやき屋 大阪北新地,大阪府大阪市北区曽根崎新地１－３－２３FOOFEARビル１F,050-5283-8626,34.6977231,135.496139,https://www.hotpepper.jp/strJ001153355/
アサヒスーパードライ 生ジョッキ,650,居酒屋,わらやき屋 大阪北新地,大阪府大阪市北区曽根崎新地１－３－２３FOOFEARビル１F,050-5283-8626,34.6977231,135.496139,https://www.hotpepper.jp/strJ001153355/
アサヒスーパードライ 生ビール,580,居酒屋,炭火串焼バル　串ＢＡＫＵ（くしばく）,大阪府大阪市北区曽根崎新地１丁目４－２４　高田屋ビル２　Ｂ１Ｆ,06-6346-7676,34.6980885,135.4968201,https://www.hotpepper.jp/strJ001137175/
アサヒスーパードライ 生ビール,650,居酒屋,酒菜料理　愛志蔵 （アジクラ）,大阪府大阪市北区堂島１-1-20,06-6343-1047,34.6963741,135.5000788,https://www.hotpepper.jp/strJ000448465/
アサヒスーパードライ 生ビール,380,居酒屋,居酒屋　わいわい　曽根崎店,大阪府大阪市北区曽根崎１-3-15,06-6311-1782,34.6983139,135.5023894,https://www.hotpepper.jp/strJ001037108/
アサヒスーパードライ 生ビール,420,アジア・エスニック料理,アジアン居酒屋　Nari屋　（ナリヤ）,大阪府大阪市北区兎我野町10-6　平田第二レジャービル１F,06-6361-6566,34.7007663,135.5032088,https://www.hotpepper.jp/strJ001041652/
アサヒスーパードライ 生中,490,創作料理,串かつ料理　活　阪急三番街店,大阪府大阪市北区芝田１-1-3 阪急三番街南館B2F,06-6372-8714,34.7042385,135.4984654,https://www.hotpepper.jp/strJ000014516/
アサヒスーパードライ 生中,603,居酒屋,ニューワクラ　LINKSUMEDA店,大阪府大阪市北区大深町1-1　LINKD UMEDA　8F,06-6376-0088,34.7046023,135.4962013,https://www.hotpepper.jp/strJ001245959/
アサヒスーパードライ 生中  18時まで,218,洋食,グリル異人館,大阪府大阪市北区梅田１-1-3 大阪駅前第三ビル　B1F　100号,06-6455-5033,34.6988257,135.4992804,https://www.hotpepper.jp/strJ001129229/
アサヒスーパードライ 赤星 (中瓶),660,創作料理,翠酔,大阪府大阪市北区堂山町7-18　第一名門ビル2F,050-5499-4721,34.7036634,135.5023904,https://www.hotpepper.jp/strJ003411279/
アサヒスーパードライ(グラス),396,焼肉・ホルモン,炭火焼肉×食べ放題 段サ上レバモツ喰ライ 梅田東通り店,大阪府大阪市北区小松原町4-5,050-5449-0346,34.7026707,135.5010691,https://www.hotpepper.jp/strJ001227207/
アサヒスーパードライ(グラス),308,和食,博多鶏ソバ　華味鳥　阪急うめだ本店,大阪府大阪市北区角田町8-7　阪急うめだ本店12F,050-5346-8998,34.7028186,135.4985323,https://www.hotpepper.jp/strJ001195123/
アサヒスーパードライ(グラス小),400,韓国料理,純韓国料理　チャンチ　ヨドバシ梅田店,大阪府大阪市北区大深町１－１－１　ヨドバシ梅田８Ｆ,06-6110-5750,34.7045946,135.4961989,https://www.hotpepper.jp/strJ001010981/
アサヒスーパードライ(ジョッキ),418,居酒屋・創作料理,串カツ 天満 七福神 大阪駅前第3ビル店,大阪府大阪市北区梅田１-1-3 大阪駅前第3ビル B2F,050-5499-3345,34.6988257,135.4992804,https://www.hotpepper.jp/strJ003388350/
アサヒスーパードライ(ジョッキ中),500,韓国料理,純韓国料理　チャンチ　ヨドバシ梅田店,大阪府大阪市北区大深町１－１－１　ヨドバシ梅田８Ｆ,06-6110-5750,34.7045946,135.4961989,https://www.hotpepper.jp/strJ001010981/
アサヒスーパードライ(中),550,居酒屋,居酒屋うろ,大阪府大阪市北区中津１-17-12  メロディーハイム中津5番館1F,050-5834-6619,34.7122316,135.4970226,https://www.hotpepper.jp/strJ000772495/
アサヒスーパードライ(中びん),715,居酒屋・和食,焼き鳥　備長炭と宮崎地鶏専門　TORA鶏YA　梅田店,大阪府大阪市北区曽根崎２丁目5-23,050-5452-5623,34.6994563,135.5012479,https://www.hotpepper.jp/strJ001258362/
アサヒスーパードライ(中ビン),605,韓国料理・居酒屋,肉寿司&野菜巻き串食べ放題　ハッシュタグ　梅田本店,大阪府大阪市北区堂山町4-6 SERビル,050-5352-1755,34.7023048,135.5022582,https://www.hotpepper.jp/strJ001209189/
アサヒスーパードライ(中ビン),715,居酒屋・和食,個室 海鮮居酒屋 魚頂天酒場 まつり 梅田店,大阪府大阪市北区角田町5-1楽天地ビルB1F,050-5834-3547,34.7038579,135.5006159,https://www.hotpepper.jp/strJ001161135/
アサヒスーパードライ(中瓶),580,居酒屋,ふぐや さでん,大阪府大阪市北区黒崎町９‐５,06-6375-7355,34.7074679,135.5077352,https://www.hotpepper.jp/strJ000720445/
アサヒスーパードライ(中瓶),680,焼肉・ホルモン,にくやき　もじもじ,大阪府大阪市北区曽根崎新地１-1-9　第3松木ビル2F,06-6344-3585,34.6978481,135.498431,https://www.hotpepper.jp/strJ000704969/
アサヒスーパードライ(中瓶),638,和食,大和肉鶏　炭火焼き鳥　鳥々々　梅田お初天神店,大阪府大阪市北区曽根崎２－１１－２１,050-5265-8529,34.7005461,135.5003971,https://www.hotpepper.jp/strJ000765330/
アサヒスーパードライ(中瓶),1100,イタリアン・フレンチ,ホテルグランヴィア大阪　フレンチレストラン　フルーヴ,大阪府大阪市北区梅田３-1-1 ホテルグランヴィア大阪19F,06-6347-1437,34.701726,135.4963754,https://www.hotpepper.jp/strJ000014040/
アサヒスーパードライ(中瓶),627,居酒屋,割鮮 吉在門　東通り店,大阪府大阪市北区小松原町1-16 モコビルB1F,050-5356-4782,34.7025203,135.5010177,https://www.hotpepper.jp/strJ000014256/
アサヒスーパードライ(中瓶),528,居酒屋,激安大衆居酒屋 乾杯屋 梅田お初天神店,大阪府大阪市北区曽根崎２-7-14,050-5861-2628,34.6997408,135.5004891,https://www.hotpepper.jp/strJ002648437/
アサヒスーパードライ(中瓶),420,居酒屋,旬鮮市場 Gyoぎょ魚,大阪府大阪市北区角田町９‐２６ 新梅田食道街２Ｆ,06-6363-8329,34.7035797,135.4980814,https://www.hotpepper.jp/strJ000740962/
アサヒスーパードライ(中瓶),605,居酒屋,大衆居酒屋　酒ト肴さしすせそ　梅田お初天神店,大阪府大阪市北区曽根崎２-11-20 春貴曽根崎ビル　1F,050-5280-2812,34.7005997,135.5003918,https://www.hotpepper.jp/strJ001127295/
アサヒスーパードライ(中瓶),450,その他グルメ,チャイニーズ酒家　豪華（フーバー）　駅前第２ビル店,大阪府大阪市北区梅田１-2-2号　大坂駅前第2ビルB1-1,06-6345-2888,34.6989342,135.4979539,https://www.hotpepper.jp/strJ000013040/
アサヒスーパードライ(中瓶),572,お好み焼き・もんじゃ,狸狸亭　北梅田店,大阪府大阪市北区豊崎１－１－６,050-5861-2972,34.7099386,135.5039122,https://www.hotpepper.jp/strJ000680786/
アサヒスーパードライ(中瓶),500,和食,おていちゃん,大阪府大阪市北区角田町９‐２６　新梅田食道街１Ｆ,06-6311-6164,34.7035797,135.4980814,https://www.hotpepper.jp/strJ000848743/
アサヒスーパードライ(中瓶),720,ダイニングバー・バル,レストラン＆バー ENT,大阪府大阪市北区曽根崎１-2-7,06-6360-2200,34.6983989,135.5028546,https://www.hotpepper.jp/strJ001277338/
アサヒスーパードライ(中瓶),715,居酒屋,和食　たちばな　グランフロント大阪,大阪府大阪市北区大深町4-20　グランフロント大阪南館7階,050-5285-7067,34.7053491,135.4945979,https://www.hotpepper.jp/strJ001106433/
アサヒスーパードライ(中瓶),550,居酒屋・和食,肉寿司　大衆肉酒場　肉汁　梅田お初天神店,大阪府大阪市北区曽根崎２-１４-１３ 曽根崎河合ビル,050-5286-0334,34.7009106,135.500539,https://www.hotpepper.jp/strJ001168896/
アサヒスーパードライ(中瓶),528,居酒屋,激安大衆居酒屋 乾杯屋 梅田芝田店,大阪府大阪市北区芝田１-3-15,050-5347-8091,34.7059131,135.4975197,https://www.hotpepper.jp/strJ001200359/
アサヒスーパードライ(中瓶),528,焼肉・ホルモン,黒毛和牛とタンとハラミ 焼肉ごりちゃん,大阪府大阪市北区堂山町8-21 石本ビル B1F,050-5452-3219,34.703704,135.5033291,https://www.hotpepper.jp/strJ001258214/
アサヒスーパードライ(中瓶)/キリン一番搾り(中瓶)/赤星(中瓶),660,居酒屋・和食,海鮮酒場　うおぷく　梅田店,大阪府大阪市北区堂山町4-12 白馬車ビル３F,050-5861-6095,34.702542,135.5021224,https://www.hotpepper.jp/strJ001292956/
アサヒスーパードライ(中瓶)/キリン一番搾り(中瓶)/赤星(中瓶),660,居酒屋・和食,高級寿司66種以上食べ放題×厳選日本酒50種以上飲み放題　うおぷく　梅田店,大阪府大阪市北区堂山町4-12 白馬車ビル３F,050-5861-7108,34.702542,135.5021224,https://www.hotpepper.jp/strJ003298352/
アサヒスーパードライ(大瓶),490,ラーメン,ラーメン食堂＆酒場　西松家,大阪府大阪市北区兎我野町10 -20,050-5816-7402,34.7007683,135.5037795,https://www.hotpepper.jp/strJ001178400/
アサヒスーパードライ(小),500,居酒屋,居酒屋うろ,大阪府大阪市北区中津１-17-12  メロディーハイム中津5番館1F,050-5834-6619,34.7122316,135.4970226,https://www.hotpepper.jp/strJ000772495/
アサヒスーパードライ(小),385,和食,博多鶏ソバ　華味鳥　阪急うめだ本店,大阪府大阪市北区角田町8-7　阪急うめだ本店12F,050-5346-8998,34.7028186,135.4985323,https://www.hotpepper.jp/strJ001195123/
アサヒスーパードライ(小瓶),700,洋食,鉄板ステーキ淀屋,大阪府大阪市北区西天満４-9-15 第一神明ビルディング1F,06-6311-2903,34.6976412,135.5039072,https://www.hotpepper.jp/strJ001202533/
アサヒスーパードライ(小瓶),990,焼肉・ホルモン,北新地 名門,大阪府大阪市北区曽根崎新地１-4-25 新地MDビル 2F・3F,050-5831-5780,34.6978827,135.4965992,https://www.hotpepper.jp/strJ001224931/
アサヒスーパードライ(小瓶),682,和食,焼き鳥 炭焼地鶏 近江 梅田東通り店,大阪府大阪市北区堂山町5-19　ふるさとビル 1F・2F,050-5258-6144,34.7029052,135.5026288,https://www.hotpepper.jp/strJ001245853/
アサヒスーパードライ(樽生:中),605,居酒屋,割鮮 吉在門　東通り店,大阪府大阪市北区小松原町1-16 モコビルB1F,050-5356-4782,34.7025203,135.5010177,https://www.hotpepper.jp/strJ000014256/
アサヒスーパードライ(樽生:小),462,居酒屋,割鮮 吉在門　東通り店,大阪府大阪市北区小松原町1-16 モコビルB1F,050-5356-4782,34.7025203,135.5010177,https://www.hotpepper.jp/strJ000014256/
アサヒスーパードライ(瓶),500,イタリアン・フレンチ・ダイニングバー・バル,イタリアンキッチン　Sa　サー,大阪府大阪市北区梅田１－1－3　大阪駅前第３ビルB2-38,050-5815-6853,34.6987788,135.499416,https://www.hotpepper.jp/strJ000012973/
アサヒスーパードライ(瓶).,605,韓国料理・焼肉・ホルモン,韓国料理×食べ放題 サムギョプサルとフライドチキン スリスリマスリ 梅田店,大阪府大阪市北区曽根崎２-10-19　第一河合ビル4Ｆ,050-5815-8463,34.7007326,135.5009073,https://www.hotpepper.jp/strJ001274696/
アサヒスーパードライ(瓶)/麒麟一番搾り(瓶)/サッポロラガー赤星(瓶),605,居酒屋・和食,個室 炭火と日本酒 吟助 梅田店,大阪府大阪市北区茶屋町14－8　2F,050-5355-5429,34.7074784,135.4986735,https://www.hotpepper.jp/strJ001217325/
アサヒスーパードライ(瓶ビール 中),550,居酒屋,酒場　鳥すけ,大阪府大阪市北区梅田１-1-3大阪駅前第3ビルB1F-15,050-5834-7958,34.6988257,135.4992804,https://www.hotpepper.jp/strJ001285467/
アサヒスーパードライ(瓶ビール),580,韓国料理,純韓国料理　チャンチ　ヨドバシ梅田店,大阪府大阪市北区大深町１－１－１　ヨドバシ梅田８Ｆ,06-6110-5750,34.7045946,135.4961989,https://www.hotpepper.jp/strJ001010981/
アサヒスーパードライ(生),638,居酒屋・ダイニングバー・バル,浪花ろばた 頂鯛 梅田北新地店,大阪府大阪市北区曽根崎新地１-6-21 栄和ビル1F,06-6147-4377,34.6976865,135.4985139,https://www.hotpepper.jp/strJ001106301/
アサヒスーパードライ(生),530,居酒屋,ふぐや さでん,大阪府大阪市北区黒崎町９‐５,06-6375-7355,34.7074679,135.5077352,https://www.hotpepper.jp/strJ000720445/
アサヒスーパードライ(生),1000,イタリアン・フレンチ,ホテルグランヴィア大阪　フレンチレストラン　フルーヴ,大阪府大阪市北区梅田３-1-1 ホテルグランヴィア大阪19F,06-6347-1437,34.701726,135.4963754,https://www.hotpepper.jp/strJ000014040/
アサヒスーパードライ(生),462,居酒屋,《24時間営業》大衆居酒屋　酒ト肴さしすせそ　梅田東通り店,大阪府大阪市北区堂山町5-4,050-5815-5303,34.702836,135.5022329,https://www.hotpepper.jp/strJ001270281/
アサヒスーパードライ(生),540,居酒屋,季節料理　四季,大阪府大阪市北区角田町9-17　新梅田食道街2F,06-6312-3361,34.7035797,135.4980814,https://www.hotpepper.jp/strJ000746744/
アサヒスーパードライ(生),429,居酒屋,大衆居酒屋　酒ト肴さしすせそ　梅田お初天神店,大阪府大阪市北区曽根崎２-11-20 春貴曽根崎ビル　1F,050-5280-2812,34.7005997,135.5003918,https://www.hotpepper.jp/strJ001127295/
アサヒスーパードライ(生),680,イタリアン・フレンチ,TRATTORIA AL POMPIERE（アルポンピエーレ）,大阪府大阪市北区角田町8-7　阪急うめだ本店13F,050-3201-3869,34.7028186,135.4985323,https://www.hotpepper.jp/strJ001038773/
アサヒスーパードライ(生),660,和食,鮨　たね弥,大阪府大阪市北区西天満４-10-23 BRILLIANT西天満1F,050-5861-2831,34.6968089,135.5037059,https://www.hotpepper.jp/strJ002647546/
アサヒスーパードライ(生),548,居酒屋・中華,中華ダイニング　食べ放題　けむり屋＆FLOWER　お初天神店,大阪府大阪市北区曽根崎２-2-3アポロ2号館1F,050-5499-3380,34.6988712,135.5015241,https://www.hotpepper.jp/strJ003389414/
アサヒスーパードライ(生) ちょっと,330,和食,鮨　たね弥,大阪府大阪市北区西天満４-10-23 BRILLIANT西天満1F,050-5861-2831,34.6968089,135.5037059,https://www.hotpepper.jp/strJ002647546/
アサヒスーパードライ(生)Rサイズ,600,ダイニングバー・バル・イタリアン・フレンチ,BARBARA market place GRAND ROYAL 2429 中崎本店,大阪府大阪市北区中崎西２－４－２９,050-3627-9699,34.7067654,135.5015133,https://www.hotpepper.jp/strJ000650311/
アサヒスーパードライ(生ビール 中),420,居酒屋,酒場　鳥すけ,大阪府大阪市北区梅田１-1-3大阪駅前第3ビルB1F-15,050-5834-7958,34.6988257,135.4992804,https://www.hotpepper.jp/strJ001285467/
アサヒスーパードライ(生中),165,居酒屋,激安大衆居酒屋　八銭　梅田東通り店,大阪府大阪市北区小松原町5-14,06-6367-0388,34.7035818,135.5014172,https://www.hotpepper.jp/strJ003366657/
アサヒスーパードライ(生中),380,その他グルメ,チャイニーズ酒家　豪華（フーバー）　駅前第２ビル店,大阪府大阪市北区梅田１-2-2号　大坂駅前第2ビルB1-1,06-6345-2888,34.6989342,135.4979539,https://www.hotpepper.jp/strJ000013040/
アサヒスーパードライ(生小),340,その他グルメ,チャイニーズ酒家　豪華（フーバー）　駅前第２ビル店,大阪府大阪市北区梅田１-2-2号　大坂駅前第2ビルB1-1,06-6345-2888,34.6989342,135.4979539,https://www.hotpepper.jp/strJ000013040/
アサヒスーパードライ(缶),500,カラオケ・パーティ,カラオケスタジオ ブギ 梅田店,大阪府大阪市北区小松原町4-12　大東洋梅田店2Ｆ,06-6312-4495,34.7029015,135.5007903,https://www.hotpepper.jp/strJ000013603/
アサヒスーパードライ/アサヒ黒生,483,和食,新喜楽　ヒルトンプラザイースト店,大阪府大阪市北区梅田１‐８‐１６ヒルトンプラザイーストＢ２Ｆ,06-6345-3461,34.7003852,135.4962447,https://www.hotpepper.jp/strJ000109487/
アサヒスーパードライ/キリンクラシック,630,焼肉・ホルモン,明華園,大阪府大阪市北区堂島１‐４‐２０　第２ロイヤルビル　４Ｆ,06-6341-1221,34.6962337,135.4975565,https://www.hotpepper.jp/strJ000448311/
アサヒスーパードライ/生中,528,居酒屋,うたげどころ うぉっしゅ,大阪府大阪市北区曽根崎新地２丁目３-１３ 若杉大阪駅前ビル B1F,050-5366-4848,34.697794,135.4938986,https://www.hotpepper.jp/strJ001223510/
アサヒスーパードライ<中ジョッキ>,500,和食,割烹 木暮,大阪府大阪市北区堂山町8-16,06-6361-5707,34.7035407,135.5028589,https://www.hotpepper.jp/strJ000866535/
アサヒスーパードライ<大瓶>,700,和食,割烹 木暮,大阪府大阪市北区堂山町8-16,06-6361-5707,34.7035407,135.5028589,https://www.hotpepper.jp/strJ000866535/
アサヒスーパードライ<小ジョッキ>,300,和食,割烹 木暮,大阪府大阪市北区堂山町8-16,06-6361-5707,34.7035407,135.5028589,https://www.hotpepper.jp/strJ000866535/
アサヒスーパードライ<生中>,600,居酒屋,かき鐵,大阪府大阪市北区曽根崎２丁目10番10号　第２あーけるびる２階,050-5366-8559,34.7004912,135.50076,https://www.hotpepper.jp/strJ001158005/
アサヒスーパードライ<生小>,450,居酒屋,かき鐵,大阪府大阪市北区曽根崎２丁目10番10号　第２あーけるびる２階,050-5366-8559,34.7004912,135.50076,https://www.hotpepper.jp/strJ001158005/
アサヒスーパードライ[生],550,居酒屋,沖縄料理　しーさ　茶屋町店,大阪府大阪市北区茶屋町19-19アプローズタワーB1F,050-5349-3450,34.7083901,135.4984691,https://www.hotpepper.jp/strJ001110716/
アサヒスーパードライ【中瓶】,713,焼肉・ホルモン・居酒屋,精肉卸問屋直営 焼肉ホルモン 肉匠牛次郎 お初天神店,大阪府大阪市北区曽根崎２－５－２２ 日宝パティオ曽根崎１階,050-5452-5238,34.6994706,135.5011466,https://www.hotpepper.jp/strJ001258233/
アサヒスーパードライ【小瓶】,480,洋食,カフェレストランFarD(ファーディ)　HEPファイブ店,大阪府大阪市北区角田町５－１５　HEP　FIVE7Ｆ,06-6366-3686,34.7040644,135.5004346,https://www.hotpepper.jp/strJ000013426/
アサヒスーパードライグラス,390,韓国料理,北新地　冷麺館,大阪府大阪市北区曽根崎新地１丁目５－４岩伸スプレットビル２Ｆ,050-5861-6689,34.6977334,135.4974829,https://www.hotpepper.jp/strJ001135085/
アサヒスーパードライ中瓶,715,居酒屋・ダイニングバー・バル,大衆スタンドヒロ　梅田店,大阪府大阪市北区堂山町１０－７　ステージジュエルビル１０５,050-5265-6774,34.7032989,135.5042215,https://www.hotpepper.jp/strJ001264769/
アサヒスーパードライ中瓶,550,和食,北新地　鶏屋　さん羽,大阪府大阪市北区曽根崎新地１－７－２５　セレーネ北新地ビル２Ｆ,06-6147-8138,34.6970044,135.4989189,https://www.hotpepper.jp/strJ001127725/
アサヒスーパードライ中瓶,583,居酒屋,串かつ料理　活　阪急グランドビル店,大阪府大阪市北区角田町8-47 阪急グランドビル28F,050-5280-9605,34.7029862,135.4990478,https://www.hotpepper.jp/strJ000014514/
アサヒスーパードライ中瓶,583,和食,串かつ料理　活　ホワイティうめだ店,大阪府大阪市北区角田町梅田地下街２－５　ホワイティうめだノースモール1,050-5281-0937,34.7031238,135.499504,https://www.hotpepper.jp/strJ000014513/
アサヒスーパードライ中瓶,605,居酒屋,食べ飲み放題の店 生醤油うどんとお酒 醤屋万吉 ハービスプラザ店,大阪府大阪市北区梅田２-5-25　ハービスプラザ B2F,050-5499-6562,34.6984253,135.4926758,https://www.hotpepper.jp/strJ003410996/
アサヒスーパードライ樽生,638,ダイニングバー・バル,RUBBER SOUL（ラバーソウル）,大阪府大阪市北区堂島１-4-26玉家ビルB1F,06-6743-4565,34.6961633,135.498072,https://www.hotpepper.jp/strJ001248849/
アサヒスーパードライ樽生(中),572,お好み焼き・もんじゃ,狸狸亭　北梅田店,大阪府大阪市北区豊崎１－１－６,050-5861-2972,34.7099386,135.5039122,https://www.hotpepper.jp/strJ000680786/
アサヒスーパードライ樽生(中ジョッキ),500,お好み焼き・もんじゃ,雅もん,大阪府大阪市北区西天満６-3-11,06-6363-7020,34.6991292,135.5056533,https://www.hotpepper.jp/strJ000678731/
アサヒスーパードライ樽生(小),462,お好み焼き・もんじゃ,狸狸亭　北梅田店,大阪府大阪市北区豊崎１－１－６,050-5861-2972,34.7099386,135.5039122,https://www.hotpepper.jp/strJ000680786/
アサヒスーパードライ瓶,530,韓国料理,北新地　冷麺館,大阪府大阪市北区曽根崎新地１丁目５－４岩伸スプレットビル２Ｆ,050-5861-6689,34.6977334,135.4974829,https://www.hotpepper.jp/strJ001135085/
アサヒスーパードライ生,638,居酒屋・ダイニングバー・バル,肉バルGAM 梅田お初天神店,大阪府大阪市北区曽根崎２-５-２５　ワンエンドワン曽根崎ビル2F,050-5349-0715,34.6994958,135.5015237,https://www.hotpepper.jp/strJ001202232/
アサヒスーパードライ生,550,和食,とりぶん　阪急グランドビル店,大阪府大阪市北区角田町８－４７　阪急グランドビル28F,06-6365-5444,34.7029862,135.4990478,https://www.hotpepper.jp/strJ000020583/
アサヒスーパードライ生,308,居酒屋,餃子と手羽先　まじめや　大阪駅前第二ビル店,大阪府大阪市北区梅田１－２－２　大阪駅前第２ビル　B1,050-5452-6053,34.6989342,135.4979539,https://www.hotpepper.jp/strJ001258862/
アサヒスーパードライ生,660,ダイニングバー・バル,阪急うめだ本店　美味旬菜,大阪府大阪市北区角田町8-7　阪急うめだ本店12F,050-5877-1665,34.7028186,135.4985323,https://www.hotpepper.jp/strJ001041245/
アサヒスーパードライ生,500,ダイニングバー・バル,bar・ya Riblin （バル・ヤ　リブリン）　グランフロント大阪,大阪府大阪市北区大深町３-１　グランフロント大阪北館６F,06-6485-7580,34.7053446,135.4945926,https://www.hotpepper.jp/strJ001026039/
アサヒスーパードライ生 小,220,居酒屋,餃子と手羽先　まじめや　大阪駅前第二ビル店,大阪府大阪市北区梅田１－２－２　大阪駅前第２ビル　B1,050-5452-6053,34.6989342,135.4979539,https://www.hotpepper.jp/strJ001258862/
アサヒスーパードライ生ビール,600,バー・カクテル,Food&Darts L-cube,大阪府大阪市北区豊崎５－1－16,06-6940-6335,34.7115142,135.4999532,https://www.hotpepper.jp/strJ001127866/
アサヒスーパードライ生ビール (中),693,お好み焼き・もんじゃ,桃太郎　ルクア大阪店,大阪府大阪市北区梅田３‐1‐3ルクア10F,050-5348-8207,34.7029403,135.4955499,https://www.hotpepper.jp/strJ001068661/
アサヒスーパードライ生ビール (中ジョッキ),550,焼肉・ホルモン,牛たん炭焼　利久　エキマルシェ大阪店,大阪府大阪市北区梅田３-1-1 エキマルシェ大阪 1F,050-5453-5855,34.7019365,135.4950795,https://www.hotpepper.jp/strJ001039182/
アサヒスーパードライ生中,550,韓国料理,北新地　冷麺館,大阪府大阪市北区曽根崎新地１丁目５－４岩伸スプレットビル２Ｆ,050-5861-6689,34.6977334,135.4974829,https://www.hotpepper.jp/strJ001135085/
アサヒデカ生,748,和食,炭焼きBAR 心 ～COCORO～ 梅田本店,大阪府大阪市北区堂山町８－１６,050-5265-9559,34.7035407,135.5028589,https://www.hotpepper.jp/strJ001124898/
アサヒノンアル,418,居酒屋,世界の山ちゃん 梅田東通り店,大阪府大阪市北区堂山町1-14　こだまレジャービル1F,06-6365-8878,34.7028402,135.5040926,https://www.hotpepper.jp/strJ001034341/
アサヒハーフ&ハーフ,380,居酒屋,たこ焼酒場　しん家,大阪府大阪市北区梅田１丁目１１－４大阪駅前第４ビルＢ１-50,050-5281-4023,34.6998973,135.4988268,https://www.hotpepper.jp/strJ001117854/
アサヒビール,600,バー・カクテル,Fire bomBAR,大阪府大阪市北区曽根崎１-7-13レイソル曽根崎603,080-2526-9093,34.6994871,135.5026932,https://www.hotpepper.jp/strJ001145774/
アサヒビール,600,ダイニングバー・バル,Bar Borracho 中崎町店,大阪府大阪市北区中崎西３-2-17,050-5499-2607,34.7082086,135.5024723,https://www.hotpepper.jp/strJ003389283/
アサヒビール,693,和食,かに道楽　梅田店,大阪府大阪市北区曽根崎２－１５－２０　スイングうめだ8階,050-5453-4725,34.7017667,135.500852,https://www.hotpepper.jp/strJ000020665/
アサヒビール,500,アジア・エスニック料理,みうらや　タイ食堂,大阪府大阪市北区角田町9-25,06-6315-9441,34.7038518,135.4978041,https://www.hotpepper.jp/strJ000745153/
アサヒビール,638,洋食,チーズと生はちみつ　ベーネ　梅田　NU茶屋町,大阪府大阪市北区茶屋町10-12　NU茶屋町9F,06-6225-7658,34.7069626,135.4990769,https://www.hotpepper.jp/strJ001000931/
アサヒビール (中ビン),470,ラーメン,らーめん古潭　かっぱ横丁店,大阪府大阪市北区芝田１－７－２　阪急かっぱ横丁,06-6373-0718,34.7071744,135.4980634,https://www.hotpepper.jp/strJ000018380/
アサヒビール (小),800,バー・カクテル,感彩人,大阪府大阪市北区曽根崎新地１-3-3好陽ビル1Ｆ,06-6344-5548,34.6973226,135.4969674,https://www.hotpepper.jp/strJ000017159/
アサヒビール(中瓶),580,韓国料理・焼肉・ホルモン,韓国料理　三年間　byコッテジ,大阪府大阪市北区茶屋町4-6竹村ビル1階,050-5451-6089,34.706324,135.4993409,https://www.hotpepper.jp/strJ001250564/
アサヒビールドライ 瓶ビール(大),480,居酒屋,居酒屋　わいわい　曽根崎店,大阪府大阪市北区曽根崎１-3-15,06-6311-1782,34.6983139,135.5023894,https://www.hotpepper.jp/strJ001037108/
アサヒプレミアム 中瓶,550,和食,炭焼きBAR 心 ～COCORO～ 梅田本店,大阪府大阪市北区堂山町８－１６,050-5265-9559,34.7035407,135.5028589,https://www.hotpepper.jp/strJ001124898/
アサヒプレミアムビール 熟撰(中瓶),660,居酒屋,割鮮 吉在門　東通り店,大阪府大阪市北区小松原町1-16 モコビルB1F,050-5356-4782,34.7025203,135.5010177,https://www.hotpepper.jp/strJ000014256/
アサヒプレミアム熟撰 小瓶,680,和食,北陸越前　はれや別邸,大阪府大阪市北区曽根崎新地１-5-21　松木興産ビル5F,06-6341-8089,34.6979791,135.497262,https://www.hotpepper.jp/strJ001169661/
アサヒプレミアム生ビール 熟撰,584,和食,銀座ハゲ天　大阪ステーションシティ店,大阪府大阪市北区梅田３-1-1　サウスゲートビル16Ｆ,06-6345-1006,34.7018732,135.4965663,https://www.hotpepper.jp/strJ000448667/
アサヒプレミアム生ビール(熟撰),565,創作料理,八幡浜 はなれ,大阪府大阪市北区曽根崎新地１-3-3 好陽ビルB1,06-6345-7017,34.6973226,135.4969674,https://www.hotpepper.jp/strJ000507690/
アサヒ・スーパードライ  (中瓶),880,和食,乾山　大阪北新地店,大阪府大阪市北区曽根崎新地１-6-32 司ビル１階,050-5572-9757,34.6982594,135.4988228,https://www.hotpepper.jp/strJ000448619/
アサヒ・スーパードライ/キリンラガー サッポロ黒ラベル 500ml,682,居酒屋,炭火焼鳥　権兵衛　茶屋町店,大阪府大阪市北区茶屋町１５－８　４Ｆ,050-5816-7770,34.7076229,135.4990846,https://www.hotpepper.jp/strJ000014074/
アサヒ中瓶,528,居酒屋,激安大衆居酒屋　八銭　梅田東通り店,大阪府大阪市北区小松原町5-14,06-6367-0388,34.7035818,135.5014172,https://www.hotpepper.jp/strJ003366657/
アサヒ中瓶,495,居酒屋,こだわり野菜＆創作和ダイニング　和み,大阪府大阪市北区曽根崎１-6-3,050-5451-1445,34.6990155,135.5037521,https://www.hotpepper.jp/strJ001234315/
アサヒ大瓶,780,居酒屋・ダイニングバー・バル,串揚げとイタリアン マジマスタンド梅田店,大阪府大阪市北区堂山町10-7,050-5451-8363,34.7032989,135.5042215,https://www.hotpepper.jp/strJ001250591/
"アサヒ樽生ビール ""マルエフ""",600,ダイニングバー・バル,ビアホール　ニュートーキョー 第一生命ビル店,大阪府大阪市北区梅田１‐８‐１７ 第一生命ビルＢ２Ｆ,050-5450-2177,34.7006002,135.4966544,https://www.hotpepper.jp/strJ000448885/
アサヒ熟撰 小瓶,660,焼肉・ホルモン,肉彩一歩,大阪府大阪市北区堂島浜１-3-22ビル堂島タウン１F,06-6170-2929,34.6957355,135.4975197,https://www.hotpepper.jp/strJ000717438/
アサヒ熟撰 瓶ビール,680,焼肉・ホルモン,ひつじや　うまうま　北新地店,大阪府大阪市北区堂島１-5-4　はつ根ビル2F,06-6940-6067,34.6960488,135.4967281,https://www.hotpepper.jp/strJ001192078/
アサヒ熟撰(生ビール),1100,焼肉・ホルモン,北新地 名門,大阪府大阪市北区曽根崎新地１-4-25 新地MDビル 2F・3F,050-5831-5780,34.6978827,135.4965992,https://www.hotpepper.jp/strJ001224931/
アサヒ熟練生ビール,700,洋食,caro,大阪府大阪市北区曽根崎新地１-3-32,050-5281-0892,34.6982594,135.4988228,https://www.hotpepper.jp/strJ000849182/
アサヒ瓶ビール,640,居酒屋・創作料理,個室・野菜巻き串と焼き鳥 博多巻きんしゃい 梅田茶屋町店,大阪府大阪市北区茶屋町２丁目２８番地茶屋町UGビル,050-5346-4302,34.7058684,135.4991214,https://www.hotpepper.jp/strJ001193218/
アサヒ瓶ビール (小瓶),715,創作料理,びすとろ炭火焼　一星,大阪府大阪市北区曽根崎新地１-6-29　宝ビル1F,050-5572-3615,34.6974151,135.4994344,https://www.hotpepper.jp/strJ001100104/
アサヒ瓶ビール(中瓶),638,居酒屋,炉端焼き×肉寿司 炭焼 肉炉端 炉漫堂 梅田東通り店,大阪府大阪市北区小松原町４－５　地下1階,050-5257-5545,34.7026707,135.5010691,https://www.hotpepper.jp/strJ001109938/
アサヒ生ビール,380,居酒屋,たこ焼酒場　しん家,大阪府大阪市北区梅田１丁目１１－４大阪駅前第４ビルＢ１-50,050-5281-4023,34.6998973,135.4988268,https://www.hotpepper.jp/strJ001117854/
アサヒ生ビール,500,和食,おていちゃん,大阪府大阪市北区角田町９‐２６　新梅田食道街１Ｆ,06-6311-6164,34.7035797,135.4980814,https://www.hotpepper.jp/strJ000848743/
アサヒ生ビール,380,居酒屋,天ぷら鉄板焼酒場　しん家,大阪府大阪市北区梅田１-1-3 B1-61,050-5223-0697,34.6990201,135.4966176,https://www.hotpepper.jp/strJ001182497/
アサヒ生ビール,418,居酒屋,こだわり野菜＆創作和ダイニング　和み,大阪府大阪市北区曽根崎１-6-3,050-5451-1445,34.6990155,135.5037521,https://www.hotpepper.jp/strJ001234315/
アサヒ生ビール,500,居酒屋,山守屋,大阪府大阪市北区角田町９‐２６　新梅田食道街１Ｆ,06-6361-3249,34.7035797,135.4980814,https://www.hotpepper.jp/strJ000827803/
アサヒ生ビール〈通称マルエフ〉 (グラス),650,ダイニングバー・バル,アサヒスーパードライ 梅田店,大阪府大阪市北区西天満４丁目15‐10あいおいニッセイ同和損保フェニックスタワーB1F,050-5258-1151,34.6978834,135.5010999,https://www.hotpepper.jp/strJ001238958/
アサヒ生ビール黒生(ジョッキ),418,居酒屋・創作料理,串カツ 天満 七福神 大阪駅前第3ビル店,大阪府大阪市北区梅田１-1-3 大阪駅前第3ビル B2F,050-5499-3345,34.6988257,135.4992804,https://www.hotpepper.jp/strJ003388350/
アサヒ隅田川ブルーイング 生中,653,居酒屋,サーモンベーネ　鮭寮,大阪府大阪市北区芝田１-3-7 マルシェ芝田3F,050-5861-8487,34.7059162,135.4974555,https://www.hotpepper.jp/strJ001268081/
アサヒ隅田川ブルーイング 生中,653,居酒屋,サーモンベーネ 梅田茶屋町店,大阪府大阪市北区芝田１-10-5 ケリービル　１F,06-6131-4974,34.7074668,135.4970572,https://www.hotpepper.jp/strJ003323987/
アサヒ青生ビール,572,居酒屋・焼肉・ホルモン,串焼き 焼とんyaたゆたゆお初天神店,大阪府大阪市北区曽根崎２－１０－７,050-5352-2890,34.7009597,135.5007968,https://www.hotpepper.jp/strJ001209456/
アサヒ黒生,880,洋食,ステーキハウス　デボン,大阪府大阪市北区曽根崎新地１-5-10 北新地地田ビル5F,050-5265-9120,34.6978962,135.4969306,https://www.hotpepper.jp/strJ000448632/
アサヒ黒生,495,お好み焼き・もんじゃ,狸狸亭　北梅田店,大阪府大阪市北区豊崎１－１－６,050-5861-2972,34.7099386,135.5039122,https://www.hotpepper.jp/strJ000680786/
アサヒ黒生 小瓶,450,創作料理,串かつ料理　活　阪急三番街店,大阪府大阪市北区芝田１-1-3 阪急三番街南館B2F,06-6372-8714,34.7042385,135.4984654,https://www.hotpepper.jp/strJ000014516/
アサヒ黒生ビール,380,居酒屋,たこ焼酒場　しん家,大阪府大阪市北区梅田１丁目１１－４大阪駅前第４ビルＢ１-50,050-5281-4023,34.6998973,135.4988268,https://www.hotpepper.jp/strJ001117854/
アサヒ黒生ビール,380,居酒屋,天ぷら鉄板焼酒場　しん家,大阪府大阪市北区梅田１-1-3 B1-61,050-5223-0697,34.6990201,135.4966176,https://www.hotpepper.jp/strJ001182497/
エクストラコールド(氷点下のスーパードライ),550,居酒屋,相撲茶屋　寺尾,大阪府大阪市北区梅田２‐４‐６,050-5281-1112,34.6984628,135.4943825,https://www.hotpepper.jp/strJ000764137/
エクストラハイネケン,700,ダイニングバー・バル・イタリアン・フレンチ,Shisha Cafe&Bar SSS Umeda,大阪府大阪市北区堂山町15-15鳳城ビル 6階,050-5861-7354,34.7046509,135.5028201,https://www.hotpepper.jp/strJ003298651/
オリオンビール,550,居酒屋,伊江人酒場,大阪府大阪市北区堂山町8-16 C棟,050-5827-3270,34.703661,135.5029694,https://www.hotpepper.jp/strJ001153766/
オリオンビール,500,居酒屋,たこ焼酒場　しん家,大阪府大阪市北区梅田１丁目１１－４大阪駅前第４ビルＢ１-50,050-5281-4023,34.6998973,135.4988268,https://www.hotpepper.jp/strJ001117854/
オリオンビール,550,居酒屋,もぐら酒場 アジイチバ,大阪府大阪市北区曽根崎２－１０－１８　B1,06-6312-3755,34.7009597,135.5007968,https://www.hotpepper.jp/strJ000012757/
オリオンビール(小びん),660,居酒屋,ダイナー空亀,大阪府大阪市北区鶴野町4丁目コープ野村梅田A棟1F,06-6940-7662,34.708723,135.5015517,https://www.hotpepper.jp/strJ001224508/
オリオンビール(生),649,居酒屋,島ぬ風　阪急三番街,大阪府大阪市北区芝田１‐１‐３　阪急三番街南館Ｂ２Ｆ,06-6375-7333,34.7042385,135.4984654,https://www.hotpepper.jp/strJ000636820/
オリオンビール(缶),500,居酒屋,ダイナー空亀,大阪府大阪市北区鶴野町4丁目コープ野村梅田A棟1F,06-6940-7662,34.708723,135.5015517,https://www.hotpepper.jp/strJ001224508/
カールスバーグ/ハ―トランド/バドワイザー,814,洋食,アウトバックステーキハウス　梅田店,大阪府大阪市北区堂島１-6-20堂島アバンザB1F,06-6457-7121,34.6968674,135.4962996,https://www.hotpepper.jp/strJ000742765/
キリン,500,中華,焼賣太樓 桜橋店,大阪府大阪市北区梅田２-1-16,06-6341-7061,34.6994133,135.4953013,https://www.hotpepper.jp/strJ001119557/
キリン クラシックラガー,650,ダイニングバー・バル,COOKPARK(クックパーク),大阪府大阪市北区小松原町1-5　イビス大阪梅田内 1F,06-6363-0333,34.7022513,135.5009993,https://www.hotpepper.jp/strJ001209418/
キリン クラシックラガー,880,洋食,ステーキハウス　デボン,大阪府大阪市北区曽根崎新地１-5-10 北新地地田ビル5F,050-5265-9120,34.6978962,135.4969306,https://www.hotpepper.jp/strJ000448632/
キリン クラシックラガー,650,創作料理,北新地　うえはら,大阪府大阪市北区堂島１-3-20　天風ビル1F,050-5280-7917,34.6969782,135.4972803,https://www.hotpepper.jp/strJ000659627/
キリン クラシックラガー 瓶ビール 中,500,和食,味楽,大阪府大阪市北区角田町９‐２５　新梅田食道街内,06-6313-4461,34.7035797,135.4980814,https://www.hotpepper.jp/strJ000661084/
キリン クラシックラガー( 瓶 ),770,和食,石臼挽き二八そば そばしき ルクア大阪店,大阪府大阪市北区梅田３-1-3 ルクア 10F,06-6476-8268,34.7029403,135.4955499,https://www.hotpepper.jp/strJ001294355/
キリン クラシックラガー(中瓶),500,居酒屋,山守屋,大阪府大阪市北区角田町９‐２６　新梅田食道街１Ｆ,06-6361-3249,34.7035797,135.4980814,https://www.hotpepper.jp/strJ000827803/
キリン クラシックラガー(中瓶),880,焼肉・ホルモン,黒毛和牛肉匠いちえ　個室別邸,大阪府大阪市北区曽根崎新地１－９－９　谷安ロワビル1階（北新地永楽町通り）,06-4798-1801,34.6982594,135.4988228,https://www.hotpepper.jp/strJ000761204/
キリン クラシックラガー(中瓶),500,和食,おていちゃん,大阪府大阪市北区角田町９‐２６　新梅田食道街１Ｆ,06-6311-6164,34.7035797,135.4980814,https://www.hotpepper.jp/strJ000848743/
キリン クラシックラガー(小),700,イタリアン・フレンチ,人家　（じんや）,大阪府大阪市北区曽根崎新地１‐３‐３　好陽ビルＢ１Ｆ,050-5831-1981,34.6973226,135.4969674,https://www.hotpepper.jp/strJ000017160/
キリン クラッシック ラガー,730,和食,epais　北新地店,大阪府大阪市北区曽根崎新地１-9-3ニュー華ビル3Ｆ,06-6347-6599,34.6982594,135.4988228,https://www.hotpepper.jp/strJ001125145/
キリン ハートランド,580,中華,龍福小籠堂　NU chayamachi,大阪府大阪市北区茶屋町１０‐１２　NU茶屋町８Ｆ,050-5828-2838,34.7069626,135.4990769,https://www.hotpepper.jp/strJ000761383/
キリン ハートランド 生,528,ダイニングバー・バル,おやさいバル　TIERRA（ティエラ）　中津本店,大阪府大阪市北区中津１-5-2,050-5861-3637,34.7099563,135.4957363,https://www.hotpepper.jp/strJ001040161/
キリン ハートランド 生,650,イタリアン・フレンチ,おやさいガーデン　TIERRA （ティエラ）　阪急梅田店,大阪府大阪市北区角田町8-7 阪急うめだ本店13F,050-5265-3326,34.7028186,135.4985323,https://www.hotpepper.jp/strJ001117661/
キリン ハードシードル,480,ダイニングバー・バル,dasole,大阪府大阪市北区小松原町2-4 フコクフォレルトスクエア B1 Ｆ,050-5280-4583,34.7023034,135.5001506,https://www.hotpepper.jp/strJ000989593/
キリン ハードシードル,506,ダイニングバー・バル,おやさいバル　TIERRA（ティエラ）　中津本店,大阪府大阪市北区中津１-5-2,050-5861-3637,34.7099563,135.4957363,https://www.hotpepper.jp/strJ001040161/
キリン ブランデーvsop,800,ダイニングバー・バル,cafe&restaurant funtime BONILLA,大阪府大阪市北区茶屋町19-19茶屋町アプローズB１F,06-6376-8822,34.7085265,135.498567,https://www.hotpepper.jp/strJ000659441/
キリン ラガー,550,中華・居酒屋,浪花ひとくち餃子 チャオチャオ 大阪駅前第3ビル店,大阪府大阪市北区梅田１-1-3 大阪駅前第3ビル B2F,050-5499-3347,34.6988257,135.4992804,https://www.hotpepper.jp/strJ003388273/
キリン ラガー,715,和食,阪急うめだ本店　江戸前回転鮨　紀州弥一,大阪府大阪市北区角田町8-7 阪急うめだ本店12F,050-5887-3010,34.7028186,135.4985323,https://www.hotpepper.jp/strJ001050830/
キリン 一番搾り,880,洋食,ステーキハウス　デボン,大阪府大阪市北区曽根崎新地１-5-10 北新地地田ビル5F,050-5265-9120,34.6978962,135.4969306,https://www.hotpepper.jp/strJ000448632/
キリン 一番搾り,605,創作料理・和食,麦とろ自然生物語　阪急空庭ダイニング32番街　29階,大阪府大阪市北区角田町8-47　阪急グランドビル29階,050-5284-8378,34.7029862,135.4990478,https://www.hotpepper.jp/strJ001160305/
キリン 一番搾り,473,居酒屋・中華,大衆食堂ぬ。,大阪府大阪市北区兎我野町11-20　新大同ビル102,050-5289-8792,34.7011441,135.503577,https://www.hotpepper.jp/strJ001192743/
キリン 一番搾り,660,ダイニングバー・バル,阪急うめだ本店　美味旬菜,大阪府大阪市北区角田町8-7　阪急うめだ本店12F,050-5877-1665,34.7028186,135.4985323,https://www.hotpepper.jp/strJ001041245/
キリン 一番搾り,418,居酒屋・中華,大衆飯店ヌ。大阪梅田店,大阪府大阪市北区梅田１-11-4　大坂駅前第4ビル　B1　40A,050-5451-2180,34.6998973,135.4988268,https://www.hotpepper.jp/strJ001234711/
キリン 一番搾り,825,中華,海皇(はいふぁん) 堂島店,大阪府大阪市北区堂島１-4-2  ビールディング北新地3F,050-5287-1755,34.696101,135.4982009,https://www.hotpepper.jp/strJ001176657/
キリン 一番搾り,700,ダイニングバー・バル,cafe&restaurant funtime BONILLA,大阪府大阪市北区茶屋町19-19茶屋町アプローズB１F,06-6376-8822,34.7085265,135.498567,https://www.hotpepper.jp/strJ000659441/
キリン 一番搾り 中瓶,700,焼肉・ホルモン,個室・焼肉懐石　北新地 すがはら,大阪府大阪市北区堂島１‐４‐２　ビールディング北新地２Ｆ,06-6341-2915,34.696101,135.4982009,https://www.hotpepper.jp/strJ000109854/
キリン 一番搾り 瓶ビール(中瓶),605,焼肉・ホルモン・各国料理,焼肉じゅうじゅうカルビ　東梅田店,大阪府大阪市北区堂山町1-5 三共梅田ビル2F,050-5499-0990,34.7026461,135.5043503,https://www.hotpepper.jp/strJ003366582/
キリン 一番搾り 生ビール,770,洋食,ハンバーグ・ステーキ グリル大宮　グランフロント大阪店,大阪府大阪市北区大深町4-20 グランフロント大阪 南館7F,050-5828-3281,34.7053491,135.4945979,https://www.hotpepper.jp/strJ001125926/
キリン 一番搾り(瓶),871,居酒屋,博多もつ鍋　おおやま　LINKS UMEDA（リンクスウメダ）,大阪府大阪市北区大深町1-1　ヨドバシウメダタワー8階,050-5451-0934,34.7045946,135.4961989,https://www.hotpepper.jp/strJ001231151/
キリン 一番搾り(生),693,居酒屋,博多もつ鍋　おおやま　LINKS UMEDA（リンクスウメダ）,大阪府大阪市北区大深町1-1　ヨドバシウメダタワー8階,050-5451-0934,34.7045946,135.4961989,https://www.hotpepper.jp/strJ001231151/
キリン 一番搾り中瓶,650,イタリアン・フレンチ,Casa d’oro(カーサディオーロ),大阪府大阪市北区西天満５丁目14番7号 和光ビル1階,06-7710-6583,34.6989653,135.506431,https://www.hotpepper.jp/strJ001194672/
キリン 淡麗,600,ダイニングバー・バル,cafe&restaurant funtime BONILLA,大阪府大阪市北区茶屋町19-19茶屋町アプローズB１F,06-6376-8822,34.7085265,135.498567,https://www.hotpepper.jp/strJ000659441/
キリンのシャンディガフ,539,居酒屋,大衆食堂ROOKIE(ルーキー)　エキマルシェ大阪店,大阪府大阪市北区梅田３－１－１,050-5877-3749,34.7030748,135.4952711,https://www.hotpepper.jp/strJ003324995/
キリンクラシック 中,660,和食,四季の味　今井きしょう,大阪府大阪市北区梅田１-３番1-B100号大阪駅前第一ビルB１,050-5280-0824,34.6988134,135.4964973,https://www.hotpepper.jp/strJ001034278/
キリンクラシックラガー,600,和食,たかまる、,大阪府大阪市北区中崎１-1-22 グレース中崎1F,06-6363-4080,34.7060163,135.5065047,https://www.hotpepper.jp/strJ001135013/
キリンクラシックラガー,750,和食,手打ちそば　石月　グランフロント大阪,大阪府大阪市北区大深町4-20　グランフロント大阪　南館7F,06-6485-7571,34.7053491,135.4945979,https://www.hotpepper.jp/strJ001042571/
キリンクラシックラガー,700,ダイニングバー・バル,Quiet Storm Cafe Osaka(くわいえっとすとーむかふぇおおさか),大阪府大阪市北区曽根崎新地２－４－２１　きちりんビル２Ｆ,050-5453-5631,34.6976129,135.4944269,https://www.hotpepper.jp/strJ001195597/
キリンクラシックラガー (大瓶),550,中華・居酒屋,大衆食堂うめだホール,大阪府大阪市北区梅田１丁目1-3 B1-25,050-5815-5546,34.6987788,135.499416,https://www.hotpepper.jp/strJ001269975/
キリンクラシックラガー 大瓶,713,居酒屋,魚民　大阪梅田茶屋町口駅前店,大阪府大阪市北区茶屋町３－２　チロル茶屋町ビル　６Ｆ,06-6375-8388,34.7062264,135.4989557,https://www.hotpepper.jp/strJ001009362/
キリンクラシックラガー 瓶,500,居酒屋,食堂酒場ラ クレール,大阪府大阪市北区堂島２-1-24堂島アーバンライフB1,06-6348-1245,34.6961477,135.4942244,https://www.hotpepper.jp/strJ000448952/
キリンクラシックラガー 瓶,680,居酒屋,酒菜料理　愛志蔵 （アジクラ）,大阪府大阪市北区堂島１-1-20,06-6343-1047,34.6963741,135.5000788,https://www.hotpepper.jp/strJ000448465/
キリンクラシックラガー(中瓶),539,居酒屋,たか鳥　お初天神店,大阪府大阪市北区曽根崎２-５-２５,050-5816-7750,34.6994958,135.5015237,https://www.hotpepper.jp/strJ000759642/
キリンクラシックラガー(中瓶),880,洋食,グルメバイキング　オリンピア,大阪府大阪市北区芝田１－１－３５　大阪新阪急ホテル　地下１F,050-5828-8821,34.7048993,135.4975376,https://www.hotpepper.jp/strJ000014525/
キリンクラシックラガー(大瓶),490,ラーメン,ラーメン食堂＆酒場　西松家,大阪府大阪市北区兎我野町10 -20,050-5816-7402,34.7007683,135.5037795,https://www.hotpepper.jp/strJ001178400/
キリンクラシックラガー(小瓶),500,お好み焼き・もんじゃ,鉄板焼おっとう中崎町,大阪府大阪市北区中崎２－２－２７,06-6371-5560,34.7081344,135.5065783,https://www.hotpepper.jp/strJ000682774/
キリンクラシックラガー(瓶),700,中華,幸福飯店　ハッピーハンテン,大阪府大阪市北区堂山町７‐１６,06-6363-5700,34.7035451,135.5022151,https://www.hotpepper.jp/strJ000060292/
キリンクラシックラガービール,605,カフェ・スイーツ,阪急うめだ本店　セ・シュクル・コロンバン,大阪府大阪市北区角田町8-7 阪急うめだ本店8F,050-5887-3003,34.7028186,135.4985323,https://www.hotpepper.jp/strJ000823356/
キリンクラシックラガー瓶,600,居酒屋,串かざり　E-ma梅田店,大阪府大阪市北区梅田１‐１２‐６　E-ma 5F,06-4797-1194,34.7006768,135.4984927,https://www.hotpepper.jp/strJ000745692/
キリンクラッシックラガー(大瓶),649,居酒屋,大衆食堂ROOKIE(ルーキー)　エキマルシェ大阪店,大阪府大阪市北区梅田３－１－１,050-5877-3749,34.7030748,135.4952711,https://www.hotpepper.jp/strJ003324995/
キリンスプリングバレー 豊潤496,800,イタリアン・フレンチ,ａｉｓａｎｃｅ　ＢＲＡＳＳＥＲＩＥ＆ＣＡＦＥ,大阪府大阪市北区鶴野町２－１５　ネストホテル大阪梅田１F,050-5282-6379,34.7076,135.50076,https://www.hotpepper.jp/strJ003365500/
キリンドラフトビール,935,ダイニングバー・バル,SKYLOUNGE STARDUST（スカイラウンジ　スターダスト）梅田スカイビル,大阪府大阪市北区大淀中１－１－８８　梅田スカイビル39階,06-6440-3890,34.7052872,135.4896527,https://www.hotpepper.jp/strJ000013599/
キリンハートランド ボトルビール,700,イタリアン・フレンチ,ａｉｓａｎｃｅ　ＢＲＡＳＳＥＲＩＥ＆ＣＡＦＥ,大阪府大阪市北区鶴野町２－１５　ネストホテル大阪梅田１F,050-5282-6379,34.7076,135.50076,https://www.hotpepper.jp/strJ003365500/
キリンビール (小),800,バー・カクテル,感彩人,大阪府大阪市北区曽根崎新地１-3-3好陽ビル1Ｆ,06-6344-5548,34.6973226,135.4969674,https://www.hotpepper.jp/strJ000017159/
キリンビール 中瓶,603,居酒屋・中華,中華ダイニング　食べ放題　けむり屋＆FLOWER　お初天神店,大阪府大阪市北区曽根崎２-2-3アポロ2号館1F,050-5499-3380,34.6988712,135.5015241,https://www.hotpepper.jp/strJ003389414/
キリンビール(中瓶),500,ラーメン,麺屋 楼蘭,大阪府大阪市北区梅田１‐２‐２　大阪駅前第２ビル　Ｂ２Ｆ,06-6345-6636,34.6989342,135.4979539,https://www.hotpepper.jp/strJ000109692/
キリンブラウマイスター,700,和食,Cuisine d'Osaka Ryo(キュイジーヌ・ド・オオサカ・リョウ),大阪府大阪市北区西天満４-2-7 昭栄ビル1F,050-5499-2716,34.6967042,135.5055203,https://www.hotpepper.jp/strJ003388574/
キリンブラウマイスター,580,居酒屋,浪花ろばた 八角 梅田 茶屋町 DDハウス店,大阪府大阪市北区芝田１－８－１　DD　HOUSE　B1F,06-6376-2881,34.7070549,135.4973708,https://www.hotpepper.jp/strJ000012497/
キリンブルックリンラガー ソラチエース,800,イタリアン・フレンチ,ａｉｓａｎｃｅ　ＢＲＡＳＳＥＲＩＥ＆ＣＡＦＥ,大阪府大阪市北区鶴野町２－１５　ネストホテル大阪梅田１F,050-5282-6379,34.7076,135.50076,https://www.hotpepper.jp/strJ003365500/
キリンラガー,500,イタリアン・フレンチ・洋食,MEAT LAB.8129,大阪府大阪市北区大深町３－１グランフロント大阪北館６階,050-5831-2690,34.7053446,135.4945926,https://www.hotpepper.jp/strJ001282806/
キリンラガー,660,居酒屋・ダイニングバー・バル,炭火バル　あじと,大阪府大阪市北区堂山町9-28スプラウトビル1F,050-5499-4796,34.7031198,135.5039453,https://www.hotpepper.jp/strJ001160905/
キリンラガー,400,居酒屋,大衆肉スタンドペロペロ,大阪府大阪市北区堂山町8-16,050-5831-1313,34.7035407,135.5028589,https://www.hotpepper.jp/strJ001259975/
キリンラガー,700,焼肉・ホルモン,黒毛和牛焼肉　きっしゃん　永楽町　松,大阪府大阪市北区曽根崎新地１丁目７－１９　えすぱす北新地21　1階,050-5452-6661,34.6973227,135.4999131,https://www.hotpepper.jp/strJ001259672/
キリンラガー,700,和食,ぞうすいと茶碗蒸し　太らん,大阪府大阪市北区曽根崎新地１-３-３０ 岩村ビル1F,050-5831-3022,34.697588,135.4969214,https://www.hotpepper.jp/strJ001282858/
キリンラガー,400,洋食,北斗星,大阪府大阪市北区梅田１‐２‐２　大阪駅前第２ビルＢ１Ｆ,06-6341-7758,34.6989342,135.4979539,https://www.hotpepper.jp/strJ000013947/
キリンラガー,880,和食,割烹 ふじ久,大阪府大阪市北区曽根崎新地１‐２‐１３,050-5265-9201,34.7011661,135.5002261,https://www.hotpepper.jp/strJ000448570/
キリンラガー,525,アジア・エスニック料理,シュリアルナ 第3ビル店,大阪府大阪市北区梅田１-１-3大阪駅前第3ビルB1-35,06-6345-5211,34.6987788,135.499416,https://www.hotpepper.jp/strJ003323000/
キリンラガー (中瓶),530,焼肉・ホルモン・韓国料理,大衆焼肉　瓜一　中崎町店,大阪府大阪市北区中崎西４-1-26  2階,06-6485-5333,34.7087127,135.5035494,https://www.hotpepper.jp/strJ001267985/
キリンラガー (中瓶)/サッポロ黒ラベル (中瓶),704,焼肉・ホルモン,Barbeque & Wine Diｎning 黒毛和牛焼肉きっしゃん 北新地店,大阪府大阪市北区曽根崎新地１-3-23　北新地FOODEARビル2F,050-5284-7287,34.6977162,135.4961491,https://www.hotpepper.jp/strJ001160049/
キリンラガー 中瓶,700,ラーメン,ラーメン近松,大阪府大阪市北区曽根崎新地１-5-31米田ビルB1,06-6346-3988,34.6990236,135.5081067,https://www.hotpepper.jp/strJ001106349/
キリンラガー 大瓶(1本),550,居酒屋・創作料理,串カツ 天満 七福神 大阪駅前第3ビル店,大阪府大阪市北区梅田１-1-3 大阪駅前第3ビル B2F,050-5499-3345,34.6988257,135.4992804,https://www.hotpepper.jp/strJ003388350/
キリンラガー 瓶,660,居酒屋,ニューワクラ　LINKSUMEDA店,大阪府大阪市北区大深町1-1　LINKD UMEDA　8F,06-6376-0088,34.7046023,135.4962013,https://www.hotpepper.jp/strJ001245959/
キリンラガー(中瓶),528,焼肉・ホルモン,黒毛和牛とタンとハラミ 焼肉ごりちゃん,大阪府大阪市北区堂山町8-21 石本ビル B1F,050-5452-3219,34.703704,135.5033291,https://www.hotpepper.jp/strJ001258214/
キリンラガー(中瓶),1320,和食,北新地 串揚げ かな山,大阪府大阪市北区曽根崎新地１-4-25 B1F,050-5831-5781,34.6982594,135.4988228,https://www.hotpepper.jp/strJ001224930/
キリンラガー(中瓶),748,和食・居酒屋,鮨割烹 のの 梅田お初天神店,大阪府大阪市北区曽根崎２－１１－２３,050-5852-0216,34.7004738,135.5003839,https://www.hotpepper.jp/strJ001294866/
キリンラガー(小瓶),1210,焼肉・ホルモン,北新地 名門,大阪府大阪市北区曽根崎新地１-4-25 新地MDビル 2F・3F,050-5831-5780,34.6978827,135.4965992,https://www.hotpepper.jp/strJ001224931/
キリンラガー(瓶),770,和食,しゃぶしゃぶ　すき焼き　はるな　東梅田店,大阪府大阪市北区西天満６-9-21  タイガービル１階,06-6363-2905,34.6990267,135.5045437,https://www.hotpepper.jp/strJ001264321/
キリンラガー(瓶),580,居酒屋・ダイニングバー・バル,個室×食べ飲み放題×串天ぷら 大衆酒場カランコロン 梅田店,大阪府大阪市北区堂山町16-11,050-5259-9291,34.7040991,135.502638,https://www.hotpepper.jp/strJ001249371/
キリンラガー<大瓶>,700,和食,割烹 木暮,大阪府大阪市北区堂山町8-16,06-6361-5707,34.7035407,135.5028589,https://www.hotpepper.jp/strJ000866535/
キリンラガー[瓶],550,居酒屋,沖縄料理　しーさ　茶屋町店,大阪府大阪市北区茶屋町19-19アプローズタワーB1F,050-5349-3450,34.7083901,135.4984691,https://www.hotpepper.jp/strJ001110716/
キリンラガー【中瓶】,713,焼肉・ホルモン・居酒屋,精肉卸問屋直営 焼肉ホルモン 肉匠牛次郎 お初天神店,大阪府大阪市北区曽根崎２－５－２２ 日宝パティオ曽根崎１階,050-5452-5238,34.6994706,135.5011466,https://www.hotpepper.jp/strJ001258233/
キリンラガークラッシック中瓶,825,和食,鮨　Matsui　はなれ　大阪梅田店,大阪府大阪市北区曽根崎２-5-22 パティオ曽根崎505,050-5852-1105,34.6994706,135.5011466,https://www.hotpepper.jp/strJ001294070/
キリンラガービール,660,ダイニングバー・バル・居酒屋,肉料理　牛肉寿司　OKITAYA　梅田東通り店,大阪府大阪市北区堂山町8-11　2F,050-5289-9774,34.7035491,135.5026443,https://www.hotpepper.jp/strJ001192120/
キリンラガービール,690,和食,ひつまぶし 名古屋　備長 グランフロント大阪店,大阪府大阪市北区大深町4-20 グランフロント大阪　南館7階　705,050-5861-5467,34.7053491,135.4945979,https://www.hotpepper.jp/strJ001027389/
キリンラガービール 中瓶,660,居酒屋,元祖串しゃぶ専門店　まつたけ　北新地本店,大阪府大阪市北区曽根崎新地１-9-8,06-6345-8884,34.6982594,135.4988228,https://www.hotpepper.jp/strJ001245605/
キリンラガービール 中瓶,638,居酒屋,元祖串しゃぶ専門店　まつたけ　堂山店,大阪府大阪市北区堂山町17-3　イーグルビル１F,050-5258-4746,34.7038714,135.5022314,https://www.hotpepper.jp/strJ001245331/
キリンラガービール 小瓶,780,洋食,ホテルグランヴィア大阪　スカイダイニング　アブ,大阪府大阪市北区梅田３－１－１　ホテルグランヴィア大阪19F,06-6347-1439,34.701726,135.4963754,https://www.hotpepper.jp/strJ000012969/
キリンラガービール 生中,400,居酒屋,大阪屋,大阪府大阪市北区角田町９－２２　1F　新梅田食道街内,06-6361-4881,34.7035797,135.4980814,https://www.hotpepper.jp/strJ000827215/
キリンラガービール(中瓶),600,ダイニングバー・バル,dasole,大阪府大阪市北区小松原町2-4 フコクフォレルトスクエア B1 Ｆ,050-5280-4583,34.7023034,135.5001506,https://www.hotpepper.jp/strJ000989593/
キリンラガービール(中瓶),500,中華,幸福飯店 ルクア大阪,大阪府大阪市北区梅田３-1-3 ルクア大阪地下2階,06-6151-2533,34.7029403,135.4955499,https://www.hotpepper.jp/strJ001193844/
キリンラガービール(中瓶),715,居酒屋・和食,《個室》 北海道・東北うめもん酒場 東北だべさ 梅田東通り店,大阪府大阪市北区堂山町6-7ステージゴールドビル2階,050-5828-6684,34.7028893,135.5028207,https://www.hotpepper.jp/strJ000763530/
キリンラガービール<瓶>/ギネスエクストラタウト<瓶>,660,ダイニングバー・バル・洋食,PIER 30 GRILL　大阪ステーションシティ店,大阪府大阪市北区梅田３-1-1　大阪ステーションシティーサウスゲートビル16階,050-5841-8270,34.7017922,135.4963334,https://www.hotpepper.jp/strJ001293164/
キリンラガー中瓶,550,和食,北新地　鶏屋　さん羽,大阪府大阪市北区曽根崎新地１－７－２５　セレーネ北新地ビル２Ｆ,06-6147-8138,34.6970044,135.4989189,https://www.hotpepper.jp/strJ001127725/
キリンラガー中瓶,550,居酒屋,うたげどころ うぉっしゅ,大阪府大阪市北区曽根崎新地２丁目３-１３ 若杉大阪駅前ビル B1F,050-5366-4848,34.697794,135.4938986,https://www.hotpepper.jp/strJ001223510/
キリンラガー中瓶,660,和食,牛しゃぶ　知慕里,大阪府大阪市北区太融寺町7-2,050-5452-5474,34.7014244,135.502638,https://www.hotpepper.jp/strJ000020854/
キリンラガー樽生,600,ダイニングバー・バル,umbrella RiB,大阪府大阪市北区兎我野町9-23　聚楽ビル1F,050-5283-8519,34.7003069,135.5038716,https://www.hotpepper.jp/strJ001153271/
キリンラガー瓶,550,お好み焼き・もんじゃ,お好み・鉄板　がるぼ,大阪府大阪市北区堂島１－４－２６　玉家ビル１F　１０１,06-6343-1155,34.6961633,135.498072,https://www.hotpepper.jp/strJ000448469/
キリンラガー生中,520,居酒屋,ダイナー空亀,大阪府大阪市北区鶴野町4丁目コープ野村梅田A棟1F,06-6940-7662,34.708723,135.5015517,https://www.hotpepper.jp/strJ001224508/
キリンラガー生小,400,居酒屋,ダイナー空亀,大阪府大阪市北区鶴野町4丁目コープ野村梅田A棟1F,06-6940-7662,34.708723,135.5015517,https://www.hotpepper.jp/strJ001224508/
キリン・クラシックラガー  (中瓶),880,和食,乾山　大阪北新地店,大阪府大阪市北区曽根崎新地１-6-32 司ビル１階,050-5572-9757,34.6982594,135.4988228,https://www.hotpepper.jp/strJ000448619/
キリン一番搾り,506,居酒屋・ダイニングバー・バル,大衆スタンドヒロ　梅田店,大阪府大阪市北区堂山町１０－７　ステージジュエルビル１０５,050-5265-6774,34.7032989,135.5042215,https://www.hotpepper.jp/strJ001264769/
キリン一番搾り,400,居酒屋,龍,大阪府大阪市北区梅田１-11-4 大阪駅前第4ビルB1,050-5453-9922,34.7000328,135.4991214,https://www.hotpepper.jp/strJ001262755/
キリン一番搾り,748,洋食,アウトバックステーキハウス　梅田店,大阪府大阪市北区堂島１-6-20堂島アバンザB1F,06-6457-7121,34.6968674,135.4962996,https://www.hotpepper.jp/strJ000742765/
キリン一番搾り,450,居酒屋・ダイニングバー・バル,個室×食べ飲み放題×串天ぷら 大衆酒場カランコロン 梅田店,大阪府大阪市北区堂山町16-11,050-5259-9291,34.7040991,135.502638,https://www.hotpepper.jp/strJ001249371/
キリン一番搾り,660,和食,鮨　Matsui　はなれ　大阪梅田店,大阪府大阪市北区曽根崎２-5-22 パティオ曽根崎505,050-5852-1105,34.6994706,135.5011466,https://www.hotpepper.jp/strJ001294070/
キリン一番搾り,495,居酒屋・和食,牛肉寿司 海鮮 串天ぷら酒場 レレレ 梅田店,大阪府大阪市北区曽根崎２-10-15曽根崎センタービル2F,050-5259-8923,34.7007263,135.5007048,https://www.hotpepper.jp/strJ001249151/
キリン一番搾り,440,居酒屋,最大165品　食べ放題 飲み放題　大衆居酒屋　梅田スタンド　梅田店,大阪府大阪市北区曽根崎２丁目 16-22 ジャスミン曽根崎ビル9F,050-5816-3131,34.7017024,135.5004102,https://www.hotpepper.jp/strJ001277115/
キリン一番搾り,500,ダイニングバー・バル,バンケットハウス　BANQUET HOUSE,大阪府大阪市北区西天満３-１-１３　B１,06-6364-2358,34.694804,135.5087144,https://www.hotpepper.jp/strJ001129084/
キリン一番搾り,583,各国料理,ガァウタイ　ホワイティー梅田店,大阪府大阪市北区小松原町梅田地下街4-3,050-5877-3665,34.6893023,135.4796573,https://www.hotpepper.jp/strJ003324837/
キリン一番搾り,528,焼肉・ホルモン・韓国料理,サムギョプサル×韓国焼肉×食べ放題　ハラミタス梅田店,大阪府大阪市北区神山町8-12,050-5816-3263,34.7030177,135.5048751,https://www.hotpepper.jp/strJ001277123/
キリン一番搾り,450,居酒屋・創作料理,大衆食堂きりんホール,大阪府大阪市北区堂山町2-14ケイワイ堂山ビル102号,050-5280-9919,34.7029,135.5038402,https://www.hotpepper.jp/strJ001267399/
キリン一番搾り,390,中華・居酒屋,大衆食堂うめだホール,大阪府大阪市北区梅田１丁目1-3 B1-25,050-5815-5546,34.6987788,135.499416,https://www.hotpepper.jp/strJ001269975/
キリン一番搾り,418,焼肉・ホルモン,焼肉 力丸 お初天神店 別館,大阪府大阪市北区曽根崎２丁目5-27 ルフージュ梅田ビル　７F,06-6314-6519,34.6994685,135.5016905,https://www.hotpepper.jp/strJ001239168/
キリン一番搾り,462,ダイニングバー・バル・居酒屋,肉料理　牛肉寿司　OKITAYA　梅田東通り店,大阪府大阪市北区堂山町8-11　2F,050-5289-9774,34.7035491,135.5026443,https://www.hotpepper.jp/strJ001192120/
キリン一番搾り,680,居酒屋・ダイニングバー・バル,大衆酒場　むに,大阪府大阪市北区堂山町16-12,050-5449-0361,34.7041067,135.5026629,https://www.hotpepper.jp/strJ001227198/
キリン一番搾り,605,居酒屋・和食,曲ル角ニハ泡喰ライ,大阪府大阪市北区堂山町16-14,050-5831-0745,34.7042808,135.5026932,https://www.hotpepper.jp/strJ001281855/
キリン一番搾り (中、小),660,和食,四季の味　今井きしょう,大阪府大阪市北区梅田１-３番1-B100号大阪駅前第一ビルB１,050-5280-0824,34.6988134,135.4964973,https://www.hotpepper.jp/strJ001034278/
キリン一番搾り (生ビール),418,中華・ラーメン,大衆中華スタンド チャーシューパンチ 梅田店,大阪府大阪市北区堂山町8-12　１Ｆ,050-5257-9109,34.7036327,135.5026546,https://www.hotpepper.jp/strJ001263773/
キリン一番搾り スタウト,550,和食,日本酒バル さわら(グランフロント大阪),大阪府大阪市北区大深町３－１グランフロント大阪　北館６F,050-5499-6123,34.7053446,135.4945926,https://www.hotpepper.jp/strJ001127711/
キリン一番搾り 中瓶,600,居酒屋・和食,ウシとお寿司とろくでなし 梅田店,大阪府大阪市北区堂山町8－18松本レジャービル１F110号,050-5499-6064,34.703547,135.5030615,https://www.hotpepper.jp/strJ003411527/
キリン一番搾り 樽詰生ビール(ジョッキ435ml),690,和食,ひつまぶし 名古屋　備長 グランフロント大阪店,大阪府大阪市北区大深町4-20 グランフロント大阪　南館7階　705,050-5861-5467,34.7053491,135.4945979,https://www.hotpepper.jp/strJ001027389/
キリン一番搾り 瓶,600,居酒屋,浪花ろばた 八角 梅田 茶屋町 DDハウス店,大阪府大阪市北区芝田１－８－１　DD　HOUSE　B1F,06-6376-2881,34.7070549,135.4973708,https://www.hotpepper.jp/strJ000012497/
キリン一番搾り 瓶ビール,399,居酒屋,海鮮屋台　おくまん　中崎町店,大阪府大阪市北区中崎１‐６‐１７　松一ビル１Ｆ,06-6377-0907,34.7073372,135.506431,https://www.hotpepper.jp/strJ000839679/
キリン一番搾り 生,429,居酒屋・イタリアン・フレンチ,酒場リベリー　episode2,大阪府大阪市北区堂山町16-4 パールレジャービル107,050-5259-9293,34.7039639,135.5030615,https://www.hotpepper.jp/strJ001249205/
キリン一番搾り 生ビール ジョッキ,500,和食,炭火焼鳥どん呑 南森町店,大阪府大阪市北区西天満５-11-3,06-4709-0255,34.698945,135.507407,https://www.hotpepper.jp/strJ000772552/
キリン一番搾り 生ビール 小グラス,300,和食,炭火焼鳥どん呑 南森町店,大阪府大阪市北区西天満５-11-3,06-4709-0255,34.698945,135.507407,https://www.hotpepper.jp/strJ000772552/
キリン一番搾り 生ビール(中),368,居酒屋,海鮮屋台　おくまん　中崎町店,大阪府大阪市北区中崎１‐６‐１７　松一ビル１Ｆ,06-6377-0907,34.7073372,135.506431,https://www.hotpepper.jp/strJ000839679/
キリン一番搾り 生中,390,居酒屋・中華,餃子とおでん酒場ふじなべ 梅田店,大阪府大阪市北区堂山町10-7ステージジュエルビル103,050-5259-9289,34.7032989,135.5042215,https://www.hotpepper.jp/strJ001249203/
キリン一番搾り(中),600,中華,幸福飯店　ハッピーハンテン,大阪府大阪市北区堂山町７‐１６,06-6363-5700,34.7035451,135.5022151,https://www.hotpepper.jp/strJ000060292/
キリン一番搾り(中),450,居酒屋,酒々菜々　遊た～ん　南森町店,大阪府大阪市北区西天満５-1-9 大和地所南森町ビルB1F,050-5288-0964,34.6980073,135.5085167,https://www.hotpepper.jp/strJ000449934/
キリン一番搾り(中瓶),715,居酒屋,和食　たちばな　グランフロント大阪,大阪府大阪市北区大深町4-20　グランフロント大阪南館7階,050-5285-7067,34.7053491,135.4945979,https://www.hotpepper.jp/strJ001106433/
キリン一番搾り(中瓶),700,中華,ロドス　大阪ステーションシティ　サウスゲートビルディング１６F,大阪府大阪市北区梅田３－１－１　大阪ステーションシティ　サウスゲートビルディング１６F,06-6347-1527,34.7017922,135.4963334,https://www.hotpepper.jp/strJ000012773/
キリン一番搾り(大瓶),490,ラーメン,ラーメン食堂＆酒場　西松家,大阪府大阪市北区兎我野町10 -20,050-5816-7402,34.7007683,135.5037795,https://www.hotpepper.jp/strJ001178400/
キリン一番搾り(小),528,焼肉・ホルモン,黒毛和牛とタンとハラミ 焼肉ごりちゃん,大阪府大阪市北区堂山町8-21 石本ビル B1F,050-5452-3219,34.703704,135.5033291,https://www.hotpepper.jp/strJ001258214/
キリン一番搾り(生),690,ダイニングバー・バル・アジア・エスニック料理,バリラックス　THE　GARDEN　梅田　BALILax,大阪府大阪市北区梅田１‐９‐２０　大阪マルビル３Ｆ,050-5827-0473,34.6998287,135.4970207,https://www.hotpepper.jp/strJ000013777/
キリン一番搾り(生),860,洋食,グルメバイキング　オリンピア,大阪府大阪市北区芝田１－１－３５　大阪新阪急ホテル　地下１F,050-5828-8821,34.7048993,135.4975376,https://www.hotpepper.jp/strJ000014525/
キリン一番搾り(生) 中ジョッキ,548,居酒屋,魚民　大阪梅田茶屋町口駅前店,大阪府大阪市北区茶屋町３－２　チロル茶屋町ビル　６Ｆ,06-6375-8388,34.7062264,135.4989557,https://www.hotpepper.jp/strJ001009362/
キリン一番搾り(生) 中ジョッキ,630,和食・居酒屋,問屋直営　ふぐ かに　鱧料理専門店　梅田 ふぐ乃介,大阪府大阪市北区曽根崎１-7-20 津多家第2ビル1F,050-5827-4925,34.699514,135.5033561,https://www.hotpepper.jp/strJ001154344/
キリン一番搾り(生) 小ジョッキ,495,和食・居酒屋,問屋直営　ふぐ かに　鱧料理専門店　梅田 ふぐ乃介,大阪府大阪市北区曽根崎１-7-20 津多家第2ビル1F,050-5827-4925,34.699514,135.5033561,https://www.hotpepper.jp/strJ001154344/
キリン一番搾り(生中),550,居酒屋・和食,焼き鳥　備長炭と宮崎地鶏専門　TORA鶏YA　梅田店,大阪府大阪市北区曽根崎２丁目5-23,050-5452-5623,34.6994563,135.5012479,https://www.hotpepper.jp/strJ001258362/
キリン一番搾り(黒生),590,和食,ひつまぶし 名古屋　備長 グランフロント大阪店,大阪府大阪市北区大深町4-20 グランフロント大阪　南館7階　705,050-5861-5467,34.7053491,135.4945979,https://www.hotpepper.jp/strJ001027389/
キリン一番搾り<黒生>,781,洋食,アウトバックステーキハウス　梅田店,大阪府大阪市北区堂島１-6-20堂島アバンザB1F,06-6457-7121,34.6968674,135.4962996,https://www.hotpepper.jp/strJ000742765/
キリン一番搾り生,550,お好み焼き・もんじゃ,お好み・鉄板　がるぼ,大阪府大阪市北区堂島１－４－２６　玉家ビル１F　１０１,06-6343-1155,34.6961633,135.498072,https://www.hotpepper.jp/strJ000448469/
キリン一番搾り生 中,550,居酒屋,串かざり　E-ma梅田店,大阪府大阪市北区梅田１‐１２‐６　E-ma 5F,06-4797-1194,34.7006768,135.4984927,https://www.hotpepper.jp/strJ000745692/
キリン一番搾り生 小,400,居酒屋,串かざり　E-ma梅田店,大阪府大阪市北区梅田１‐１２‐６　E-ma 5F,06-4797-1194,34.7006768,135.4984927,https://www.hotpepper.jp/strJ000745692/
キリン一番搾り生ビール,680,中華,名家　華中華　ハービスPLAZA ENT,大阪府大阪市北区梅田２-2-22　ハービスPLAZA　ENT５F,06-6342-1168,34.6997829,135.4945698,https://www.hotpepper.jp/strJ000834798/
キリン一番搾り生ビール グラス,440,ダイニングバー・バル・洋食,PIER 30 GRILL　大阪ステーションシティ店,大阪府大阪市北区梅田３-1-1　大阪ステーションシティーサウスゲートビル16階,050-5841-8270,34.7017922,135.4963334,https://www.hotpepper.jp/strJ001293164/
キリン一番搾り生ビール 中ジョッキ,350,居酒屋,焼肉＆海鮮居酒屋 海千山千番長 中津店,大阪府大阪市北区豊崎５-7-16,050-5349-3460,34.7117173,135.4979431,https://www.hotpepper.jp/strJ001202986/
キリン一番搾り生ビール 大ジョッキ,680,居酒屋,焼肉＆海鮮居酒屋 海千山千番長 中津店,大阪府大阪市北区豊崎５-7-16,050-5349-3460,34.7117173,135.4979431,https://www.hotpepper.jp/strJ001202986/
キリン一番搾り生ビール(中),700,中華,ロドス　大阪ステーションシティ　サウスゲートビルディング１６F,大阪府大阪市北区梅田３－１－１　大阪ステーションシティ　サウスゲートビルディング１６F,06-6347-1527,34.7017922,135.4963334,https://www.hotpepper.jp/strJ000012773/
キリン一番搾り生ビール(中),528,居酒屋,たか鳥　お初天神店,大阪府大阪市北区曽根崎２-５-２５,050-5816-7750,34.6994958,135.5015237,https://www.hotpepper.jp/strJ000759642/
キリン一番搾り生ビール(小),550,中華,ロドス　大阪ステーションシティ　サウスゲートビルディング１６F,大阪府大阪市北区梅田３－１－１　大阪ステーションシティ　サウスゲートビルディング１６F,06-6347-1527,34.7017922,135.4963334,https://www.hotpepper.jp/strJ000012773/
キリン一番搾り生ビール(小),550,中華,名家　華中華　ハービスPLAZA ENT,大阪府大阪市北区梅田２-2-22　ハービスPLAZA　ENT５F,06-6342-1168,34.6997829,135.4945698,https://www.hotpepper.jp/strJ000834798/
キリン淡麗,308,焼肉・ホルモン,焼肉 力丸 お初天神店 別館,大阪府大阪市北区曽根崎２丁目5-27 ルフージュ梅田ビル　７F,06-6314-6519,34.6994685,135.5016905,https://www.hotpepper.jp/strJ001239168/
キリン淡麗(発泡酒),280,ラーメン,麺屋 楼蘭,大阪府大阪市北区梅田１‐２‐２　大阪駅前第２ビル　Ｂ２Ｆ,06-6345-6636,34.6989342,135.4979539,https://www.hotpepper.jp/strJ000109692/
キリン瓶ビール,495,居酒屋,大衆すし酒場 ジャポニカ 大阪駅前第3ビル店,大阪府大阪市北区梅田１丁目１-３大阪駅前第３ビルＢ１Ｆ,050-5831-5583,34.6988257,135.4992804,https://www.hotpepper.jp/strJ001283775/
キリン生ビール,630,焼肉・ホルモン,明華園,大阪府大阪市北区堂島１‐４‐２０　第２ロイヤルビル　４Ｆ,06-6341-1221,34.6962337,135.4975565,https://www.hotpepper.jp/strJ000448311/
ギネス,990,ダイニングバー・バル,堂島ゴルフクラブ Restraurant Bar St.,大阪府大阪市北区堂島１-2-2 日昭ビル　Ｂ１,06-6345-1366,34.6961192,135.4996001,https://www.hotpepper.jp/strJ001176481/
ギネス,700,ダイニングバー・バル,AMERICAN CAFE BAR RICH GARDEN （リッチガーデン） 梅田中崎町店,大阪府大阪市北区中崎西２-3-14,06-6147-7695,34.7057157,135.5025275,https://www.hotpepper.jp/strJ001193530/
ギネス,800,バー・カクテル,shot BAR commons(ショットバーコモンズ),大阪府大阪市北区曽根崎２‐8‐12,050-5347-1910,34.6996762,135.5006495,https://www.hotpepper.jp/strJ000920462/
ギネス,770,焼肉・ホルモン,焼肉　ハラミ馬鹿,大阪府大阪市北区中崎１－５－１９　１階,050-5281-5576,34.7070448,135.5058142,https://www.hotpepper.jp/strJ001135068/
ギネス,979,ダイニングバー・バル,GOOD PROVISION NEWYORK（グッド プロヴィジョン ニューヨーク）,大阪府大阪市北区梅田３-1-3  ルクアイーレ10F,050-5289-6249,34.7028866,135.4953236,https://www.hotpepper.jp/strJ001185929/
ギネス,600,バー・カクテル,北京,大阪府大阪市北区角田町９－２５　新梅田食道街内,06-6311-2369,34.7035797,135.4980814,https://www.hotpepper.jp/strJ000866812/
ギネス,650,アジア・エスニック料理,HOLIMASALA（ホリマサラ）,大阪府大阪市北区堂山町4-4　阪急東ビル406,06-7860-3787,34.702339,135.5023986,https://www.hotpepper.jp/strJ000980727/
ギネス,735 ,ダイニングバー・バル,ボギー,大阪府大阪市北区豊崎３‐１‐２２淀川６番館Ｂ１Ｆ,06-6374-1199,34.7099027,135.5001172,https://www.hotpepper.jp/strJ000014290/
ギネス,800,ダイニングバー・バル,Quiet Storm Cafe Osaka(くわいえっとすとーむかふぇおおさか),大阪府大阪市北区曽根崎新地２－４－２１　きちりんビル２Ｆ,050-5453-5631,34.6976129,135.4944269,https://www.hotpepper.jp/strJ001195597/
ギネス,550,ダイニングバー・バル,ＨＵＢ　東梅田店,大阪府大阪市北区小松原町1-7 ミスターりんビルB1F,06-6130-9182,34.7021835,135.500852,https://www.hotpepper.jp/strJ001178334/
ギネス,700,ダイニングバー・バル,バンケットハウス　BANQUET HOUSE,大阪府大阪市北区西天満３-１-１３　B１,06-6364-2358,34.694804,135.5087144,https://www.hotpepper.jp/strJ001129084/
ギネス,550,ダイニングバー・バル,ＨＵＢ 梅田茶屋町店,大阪府大阪市北区茶屋町3-4　チロル茶屋町ビル2F,06-6376-8682,34.7062264,135.4989557,https://www.hotpepper.jp/strJ000727051/
ギネス,800,各国料理,梅田 メキシカン ダイニング エラドゥーラ 中崎・茶屋町 本店,大阪府大阪市北区中崎西１-9-12 すえひろがり第７ビル　２F３F,050-5356-1268,34.708461,135.503531,https://www.hotpepper.jp/strJ001215059/
ギネス,650,カフェ・スイーツ,whitebird  coffee  stand,大阪府大阪市北区曽根崎２-1-12　国道ビル　1F,06-6809-3769,34.6984571,135.5016622,https://www.hotpepper.jp/strJ001142803/
ギネス,750,居酒屋,ダイナー空亀,大阪府大阪市北区鶴野町4丁目コープ野村梅田A棟1F,06-6940-7662,34.708723,135.5015517,https://www.hotpepper.jp/strJ001224508/
ギネス,550,ダイニングバー・バル,HUB LINKS UMEDA店,大阪府大阪市北区大深町1-1　LINKS UMEDA　B1F,06-6485-0715,34.7046023,135.4962013,https://www.hotpepper.jp/strJ001250818/
ギネス,638,居酒屋・ダイニングバー・バル,炭火バル　あじと,大阪府大阪市北区堂山町9-28スプラウトビル1F,050-5499-4796,34.7031198,135.5039453,https://www.hotpepper.jp/strJ001160905/
ギネス,880,イタリアン・フレンチ・ダイニングバー・バル,Cafe and bar SOL,大阪府大阪市北区堂山町8-10,050-5368-0436,34.7034713,135.5028589,https://www.hotpepper.jp/strJ000717513/
ギネス,850,イタリアン・フレンチ・ダイニングバー・バル,梅田 夜景 イタリアン シーフードトラットリア Sdining,大阪府大阪市北区角田町８-４７ 阪急グランドビル30Ｆ,050-5816-8028,34.7029862,135.4990478,https://www.hotpepper.jp/strJ000773142/
ギネス,880,洋食・ダイニングバー・バル,STEAK THE FIRST 北新地,大阪府大阪市北区曽根崎新地１－５番２１号　松木興産ビル１F,050-5572-0350,34.6979791,135.497262,https://www.hotpepper.jp/strJ001099117/
ギネス,600,イタリアン・フレンチ,ナポリピッツァ&テラス　エスタディオ梅田店,大阪府大阪市北区茶屋町3-6　加茂梅田ビル7F,050-5861-2584,34.706328,135.4988858,https://www.hotpepper.jp/strJ000683990/
ギネス,550,ダイニングバー・バル,HUB　梅田東通り店,大阪府大阪市北区堂山町4-12　　白馬車ビルPart１　2F,06-6130-8982,34.702542,135.5021224,https://www.hotpepper.jp/strJ001250820/
ギネス,825,イタリアン・フレンチ・洋食,PIZZA SALVATORE CUOMO 梅田／TheBAR,大阪府大阪市北区曽根崎２－３－５ 梅新第一生命ビル1・2F,050-5816-7876,34.698519,135.50108,https://www.hotpepper.jp/strJ000724766/
ギネス,700,和食,Cuisine d'Osaka Ryo(キュイジーヌ・ド・オオサカ・リョウ),大阪府大阪市北区西天満４-2-7 昭栄ビル1F,050-5499-2716,34.6967042,135.5055203,https://www.hotpepper.jp/strJ003388574/
ギネス,880,イタリアン・フレンチ・ダイニングバー・バル,トラットリア　イタリアンバール　 sol saliente,大阪府大阪市北区堂山町1-14　こだまレジャービルB1F,050-5366-4802,34.7028402,135.5040926,https://www.hotpepper.jp/strJ001131462/
ギネス,550,ダイニングバー・バル,HUB　梅田茶屋町　アプローズ店,大阪府大阪市北区茶屋町19-19　アプローズタワーB1F,06-6377-8682,34.7083901,135.4984691,https://www.hotpepper.jp/strJ001119315/
ギネス (黒),700,イタリアン・フレンチ,サラマンジェ　角屋,大阪府大阪市北区曽根崎新地１‐５‐２　大川ビル本館Ｂ１Ｆ,050-5281-0457,34.6985641,135.5087696,https://www.hotpepper.jp/strJ000659654/
ギネス <330ml小瓶>,770,イタリアン・フレンチ,スパッカ　アルバータ　ルクアイーレ店,大阪府大阪市北区梅田３-1-3 ルクアイーレ10F,050-5347-6155,34.7028866,135.4953236,https://www.hotpepper.jp/strJ001099664/
ギネス エクストラスタウト,880,居酒屋・ダイニングバー・バル,肉バルGAM 梅田お初天神店,大阪府大阪市北区曽根崎２-５-２５　ワンエンドワン曽根崎ビル2F,050-5349-0715,34.6994958,135.5015237,https://www.hotpepper.jp/strJ001202232/
ギネス エクストラスタウト,800,洋食,caro,大阪府大阪市北区曽根崎新地１-3-32,050-5281-0892,34.6982594,135.4988228,https://www.hotpepper.jp/strJ000849182/
ギネス エクストラスタウト,900,バー・カクテル,Dining Bar M's,大阪府大阪市北区曽根崎2-14-10梅田ロイヤルビル7F,050-5223-1089,34.7009347,135.5007048,https://www.hotpepper.jp/strJ001037097/
ギネス エクストラスタウト,715,居酒屋・イタリアン・フレンチ,肉と魚　レトロ酒場　オハツ商店　梅田本店,大阪府大阪市北区曽根崎２-10-14 サンユニテック曽根崎2丁目ビル１F,050-5453-5549,34.7009597,135.5007968,https://www.hotpepper.jp/strJ001261362/
ギネス エクストラスタウト (瓶),715,居酒屋・創作料理,大衆酒場　肉寿司×博多巻き串　おはつ商店　梅田店,大阪府大阪市北区曽根崎２-10-14 サンユニテック曽根崎2丁目ビル 1F,050-5453-5441,34.7009597,135.5007968,https://www.hotpepper.jp/strJ001261378/
ギネス オリジナルエクストラスタウト,800,ダイニングバー・バル,dasole,大阪府大阪市北区小松原町2-4 フコクフォレルトスクエア B1 Ｆ,050-5280-4583,34.7023034,135.5001506,https://www.hotpepper.jp/strJ000989593/
ギネス スタウト,680,イタリアン・フレンチ・ダイニングバー・バル,梅田ワイン酒場 バルミチェ,大阪府大阪市北区芝田１-6,050-5841-7343,34.7068513,135.4982377,https://www.hotpepper.jp/strJ001008924/
ギネス スタウト(黒ビール),550,ダイニングバー・バル,スペイン風居酒屋　フェルナンド　キッチン,大阪府大阪市北区堂山町7-18 伊勢屋ビルB1,06-4709-0015,34.703684,135.5024907,https://www.hotpepper.jp/strJ001000598/
ギネス 小瓶,700,イタリアン・フレンチ,BA－RU ONE（バールワン）,大阪府大阪市北区梅田１‐２‐２　大阪駅前第２ビル　Ｂ２Ｆ　１２‐１,06-4796-6227,34.6989342,135.4979539,https://www.hotpepper.jp/strJ000740936/
ギネス(アイルランド),850,ダイニングバー・バル・イタリアン・フレンチ,BARBARA market place GRAND ROYAL 2429 中崎本店,大阪府大阪市北区中崎西２－４－２９,050-3627-9699,34.7067654,135.5015133,https://www.hotpepper.jp/strJ000650311/
ギネス(サージャー),850,バー・カクテル,Rudelicious,大阪府大阪市北区豊崎５-8-14　第5扶栄ビル201,06-6372-5011,34.7113111,135.4977774,https://www.hotpepper.jp/strJ001145005/
ギネス(小瓶),770,イタリアン・フレンチ,quatre lapin 北梅田（中津）,大阪府大阪市北区中津１-16-25-1F,080-9123-9191,34.7120734,135.4962865,https://www.hotpepper.jp/strJ001192025/
ギネス(黒),730,和食,旨い肴と、旨い酒。 田丸,大阪府大阪市北区曽根崎２-14－7太平レジャービル1Ｆ,06-6363-3336,34.7009452,135.501036,https://www.hotpepper.jp/strJ000726995/
ギネスDRAUGHT(黒ビール),840,中華,名家　華中華　ハービスPLAZA ENT,大阪府大阪市北区梅田２-2-22　ハービスPLAZA　ENT５F,06-6342-1168,34.6997829,135.4945698,https://www.hotpepper.jp/strJ000834798/
ギネスエクストラスタウト,900,バー・カクテル,THE SHISHA HOUSE 大阪梅田阪急店‐シーシャ・水タバコ専門店シーシャハウス,大阪府大阪市北区堂山町3-15ロイヤルビル2F,06-6766-4922,34.7027544,135.503264,https://www.hotpepper.jp/strJ001268786/
ギネスドラフト,980,洋食,ホテルグランヴィア大阪　スカイダイニング　アブ,大阪府大阪市北区梅田３－１－１　ホテルグランヴィア大阪19F,06-6347-1439,34.701726,135.4963754,https://www.hotpepper.jp/strJ000012969/
ギネスビール,970,ダイニングバー・バル,グリアンテ梅田,大阪府大阪市北区芝田１－３－１  ギャザ阪急２Ｆ,06-6147-8615,34.705548,135.4975565,https://www.hotpepper.jp/strJ001263017/
ギネスビール,800,和食,北新地　竹,大阪府大阪市北区堂島１‐３‐３９　第２二葉ビル１Ｆ,06-6442-3030,34.6963415,135.4984218,https://www.hotpepper.jp/strJ000016881/
ギネスビール,880,ダイニングバー・バル,ジャマイカンBBQ＆シーフード　Ragga×Ragga(ラガラガ)　北新地,大阪府大阪市北区曽根崎新地１-1-40 ジロービル3Ｆ,050-5816-6766,34.6967269,135.5003549,https://www.hotpepper.jp/strJ000677616/
ギネスビール,900,バー・カクテル,Bar Blue Bird,大阪府大阪市北区曽根崎新地１-6-32　ＳＫビル3F,06-6341-9345,34.6982594,135.4988228,https://www.hotpepper.jp/strJ000862298/
ギネス・スタウト,650,カラオケ・パーティ,Billiard＆DartsBar Nove,大阪府大阪市北区小松原町1-20,06-6361-4536,34.7024379,135.5011881,https://www.hotpepper.jp/strJ000876016/
クラシックラガー,638,中華・ダイニングバー・バル,不純中華1234,大阪府大阪市北区堂山町2-12川村ビル１F,050-5499-0939,34.7028329,135.5036046,https://www.hotpepper.jp/strJ003366395/
クラシックラガー 中瓶,680,居酒屋,焼肉＆海鮮居酒屋 海千山千番長 中津店,大阪府大阪市北区豊崎５-7-16,050-5349-3460,34.7117173,135.4979431,https://www.hotpepper.jp/strJ001202986/
クラシックラガー(中瓶),693,焼肉・ホルモン・居酒屋,阪急東通り　焼肉一丁,大阪府大阪市北区小松原町4-32　北大阪東通りビル3F,050-5259-9116,34.7028375,135.5013676,https://www.hotpepper.jp/strJ000650214/
クラッシックラガー (大),660,居酒屋,うお徳,大阪府大阪市北区中津１-11-30,06-6373-2879,34.7116348,135.4968201,https://www.hotpepper.jp/strJ000450274/
クラッシックラガー (瓶),630,和食・居酒屋,問屋直営　ふぐ かに　鱧料理専門店　梅田 ふぐ乃介,大阪府大阪市北区曽根崎１-7-20 津多家第2ビル1F,050-5827-4925,34.699514,135.5033561,https://www.hotpepper.jp/strJ001154344/
クラッシックラガー(中瓶),700,中華,名家　華中華　ハービスPLAZA ENT,大阪府大阪市北区梅田２-2-22　ハービスPLAZA　ENT５F,06-6342-1168,34.6997829,135.4945698,https://www.hotpepper.jp/strJ000834798/
クリアアサヒ,649,居酒屋,チーズタッカルビ 個室 SENBA 梅田東通り店,大阪府大阪市北区堂山町4-17 固城ビル3F-B,06-6948-8651,34.7026918,135.5026748,https://www.hotpepper.jp/strJ001098882/
クリアアサヒ,605,居酒屋,地鶏ダイニング個室 綾瀬,大阪府大阪市北区茶屋町13-6 TAG茶屋町ビル8Ｆ,06-6467-8091,34.7076229,135.4990846,https://www.hotpepper.jp/strJ001208118/
クリアアサヒ,605,居酒屋,鳥専門個室 兼続,大阪府大阪市北区曽根崎２-8-7　コーストスタジョーネ5F,06-4301-4485,34.6997226,135.5011282,https://www.hotpepper.jp/strJ001193091/
クリアアサヒ,605,居酒屋,海鮮個室居酒屋 米増 梅田店,大阪府大阪市北区曽根崎２-8-24 KS SQUARE B1F,06-6948-6380,34.7000017,135.5008199,https://www.hotpepper.jp/strJ001219078/
クリアアサヒ,600,居酒屋・ダイニングバー・バル,個室 BOSTONグリル 梅田店,大阪府大阪市北区曽根崎２-11-20 春貴曽根崎ビル B1F,050-5289-6520,34.7005997,135.5003918,https://www.hotpepper.jp/strJ001186057/
クリアアサヒ,528,居酒屋・和食,完全個室完備 四季彩 －SHIKISAI－ 梅田店,大阪府大阪市北区芝田２-3-9 EXCEL UMEDA 3F,050-5831-6850,34.7054067,135.4953251,https://www.hotpepper.jp/strJ001283853/
クリアアサヒ,590,居酒屋・ダイニングバー・バル,名古屋コーチンと個室居酒屋 天錦 梅田本店,大阪府大阪市北区堂山町4-17 固城ビル 2F,050-5285-4067,34.7026918,135.5026748,https://www.hotpepper.jp/strJ001162244/
クリアアサヒ,495,ダイニングバー・バル・居酒屋,肉バル　食べ飲み放題　ミートマーケット 梅田店,大阪府大阪市北区太融寺町7-11　フジノビルディングノバ2F,050-5257-6178,34.7014921,135.5027853,https://www.hotpepper.jp/strJ001052197/
クリアアサヒ,528,居酒屋・焼肉・ホルモン,【完全個室完備】極上肉と旨い海鮮 はなれ -HANARE- 梅田店,大阪府大阪市北区芝田２-3-9 EXCEL UMEDA 3F,050-5831-6904,34.7054067,135.4953251,https://www.hotpepper.jp/strJ001283854/
クリアアサヒ (中),298,居酒屋,愛想屋,大阪府大阪市北区西天満４丁目6-22 福神ビル1F,050-5368-6069,34.6964935,135.5050408,https://www.hotpepper.jp/strJ001157911/
クリアアサヒ(樽詰め),230,ラーメン,ラーメン食堂＆酒場　西松家,大阪府大阪市北区兎我野町10 -20,050-5816-7402,34.7007683,135.5037795,https://www.hotpepper.jp/strJ001178400/
クリアアサヒ樽詰(新ジャンル),580,居酒屋・洋食,チーズとお肉×夜景個室ダイニング 空Garden 梅田駅店,大阪府大阪市北区小松原町1-10 9階,050-5816-0639,34.7021853,135.5007048,https://www.hotpepper.jp/strJ001168767/
クリアアサヒ樽詰(新ジャンル),580,居酒屋・和食,うにくと肉寿司 全席個室居酒屋　そざい庵～SOZAIAN～梅田駅店,大阪府大阪市北区小松原町1-10 9階,050-5816-0643,34.7021853,135.5007048,https://www.hotpepper.jp/strJ001168766/
グラス生ビール~キリン一番搾り生~,550,イタリアン・フレンチ,ottonove オットノーヴェ,大阪府大阪市北区堂島浜１－１－９　１F,050-5283-8051,34.6952094,135.4999929,https://www.hotpepper.jp/strJ001100839/
グランドキリンIPA[IPA],1100,ダイニングバー・バル,ｍｉｍｉｚｕｋｕ　ｅａｓｙｂａｒ,大阪府大阪市北区曽根崎新地２-1-13 巽梅田ビル1F,050-5223-2672,34.6977315,135.4946846,https://www.hotpepper.jp/strJ000505826/
コロナ,600,ダイニングバー・バル,ちょい呑み食堂　tutini,大阪府大阪市北区中津１－８－１０　小松ビル１Ｆ,06-6376-8333,34.7106923,135.4948869,https://www.hotpepper.jp/strJ001143433/
コロナ,680,イタリアン・フレンチ・ダイニングバー・バル,梅田ワイン酒場 バルミチェ,大阪府大阪市北区芝田１-6,050-5841-7343,34.7068513,135.4982377,https://www.hotpepper.jp/strJ001008924/
コロナ,700,ダイニングバー・バル,AMERICAN CAFE BAR RICH GARDEN （リッチガーデン） 梅田中崎町店,大阪府大阪市北区中崎西２-3-14,06-6147-7695,34.7057157,135.5025275,https://www.hotpepper.jp/strJ001193530/
コロナ,700,イタリアン・フレンチ,KOHOKU,大阪府大阪市北区鶴野町２－８　鶴野ビル1F,06-6359-0630,34.7069682,135.5008705,https://www.hotpepper.jp/strJ000012619/
コロナ,750,ダイニングバー・バル,DRUNK　BEARS　Nu茶屋町店,大阪府大阪市北区茶屋町10-12　NU茶屋町Ｂ1Ｆ,06-6372-7275,34.7069626,135.4990769,https://www.hotpepper.jp/strJ000063146/
コロナ,638,居酒屋・ダイニングバー・バル,炭火バル　あじと,大阪府大阪市北区堂山町9-28スプラウトビル1F,050-5499-4796,34.7031198,135.5039453,https://www.hotpepper.jp/strJ001160905/
コロナ,700,居酒屋,ダイナー空亀,大阪府大阪市北区鶴野町4丁目コープ野村梅田A棟1F,06-6940-7662,34.708723,135.5015517,https://www.hotpepper.jp/strJ001224508/
コロナ,850,イタリアン・フレンチ・ダイニングバー・バル,梅田 夜景 イタリアン シーフードトラットリア Sdining,大阪府大阪市北区角田町８-４７ 阪急グランドビル30Ｆ,050-5816-8028,34.7029862,135.4990478,https://www.hotpepper.jp/strJ000773142/
コロナ,700,バー・カクテル,BAR　THIRD STONE（バー　サードストーン）梅田店,大阪府大阪市北区堂山町15-17 梅田シティビルACT3,06-6365-7177,34.7046853,135.5030062,https://www.hotpepper.jp/strJ001135079/
コロナ,700,ダイニングバー・バル,Quiet Storm Cafe Osaka(くわいえっとすとーむかふぇおおさか),大阪府大阪市北区曽根崎新地２－４－２１　きちりんビル２Ｆ,050-5453-5631,34.6976129,135.4944269,https://www.hotpepper.jp/strJ001195597/
コロナ,630,アジア・エスニック料理,シュリアルナ 第3ビル店,大阪府大阪市北区梅田１-１-3大阪駅前第3ビルB1-35,06-6345-5211,34.6987788,135.499416,https://www.hotpepper.jp/strJ003323000/
コロナ,650,アジア・エスニック料理,HOLIMASALA（ホリマサラ）,大阪府大阪市北区堂山町4-4　阪急東ビル406,06-7860-3787,34.702339,135.5023986,https://www.hotpepper.jp/strJ000980727/
コロナ,700,ダイニングバー・バル,memphis,大阪府大阪市北区西天満２丁目9-3大治ロイヤービル1F,06-6363-3738,34.6964246,135.502417,https://www.hotpepper.jp/strJ000760501/
